Id,Governate,Area Name,ATM Name,Latitude,Longitude,Description
ccc384e5-1685-4e11-8714-0ebb44713258,Al-Behera,Abu Al Matamir,Abu Al Matamir,30.91078908,30.17701905,Withdrawal - Deposit - Currency Exchange
dd5110e3-dec0-478b-8749-f7f63515d1b3,Al-Behera,Abu Al Matamir,Abu Al Matamir,30.81405902,29.98830245,Withdrawal - Deposit - Currency Exchange
035f3bfe-ad27-4300-8319-22305c065bbc,Al-Behera,Abu Al Matamir,Tamwely Abu El Matamir,30.91290404,30.17689168,Withdrawal - Deposit
b1816eb1-f36e-413d-9773-3458c28d5368,Al-Behera,Abu Al Matamir,Tanmiya Abu El Matamir,30.91144225,30.17490715,Withdrawal - Deposit
29593a8e-c387-49a8-aad8-1f6da309917a,Al-Behera,Abu Al Matamir,Tanmiya Nasser,30.92230447,29.95121672,Withdrawal - Deposit
c85ed5b1-ac0e-4a81-85d9-5f03027aa077,Al-Behera,Abu Homos,Abu Homos,31.0978262,30.31474322,Withdrawal - Deposit - Currency Exchange
1051f74c-b345-4b11-8efb-0ec467a13d48,Al-Behera,Al Mahmoudeya,Al Mahmoudeya,31.18275058,30.52755669,Withdrawal - Deposit - Currency Exchange
5de0dd5c-ae4f-4735-9498-a2380aa8f327,Al-Behera,Al Mahmoudeya,Tanmiya Mahmoudia,31.18416312,30.52710423,Withdrawal - Deposit
9041a4f4-fc53-4bbb-8ab6-4182a5009fef,Al-Behera,Al Rahmaneya,Al Rahmaneya,31.10691837,30.64172916,Withdrawal - Deposit - Currency Exchange
987917eb-bca1-4a74-9ad9-d6d950c4b8a1,Al-Behera,Al Rahmaneya,Tanmiya Rahmania,31.10958367,30.63910172,Withdrawal - Deposit
d4b6e04c-c82b-43c5-bf96-abaae0f9fb53,Al-Behera,Damanhour,Damanhour,31.036388,30.457638,Withdrawal - Deposit - Currency Exchange
6618809c-9c71-4888-b49c-7ade24fa6c96,Al-Behera,Damanhour,Damanhour,31.037774,30.433125,Withdrawal - Deposit - Currency Exchange
29424ef9-1431-49ff-bc97-88f437132d5d,Al-Behera,Damanhour,Damanhour,31.052879,30.462731,Withdrawal - Deposit - Currency Exchange
39af0391-0c27-40c4-87cb-bbfa35dd744b,Al-Behera,Damanhour,Damanhour,31.04241948,30.46890924,Withdrawal - Deposit - Currency Exchange
3bf1ce29-2204-41c3-be4d-8f5a52661b06,Al-Behera,Damanhour,Albuhiera Azhar Area 2,31.05193166,30.46430279,Withdrawal - Deposit - Currency Exchange
468f7ba6-154d-45a9-afec-09adb4dbd500,Al-Behera,Damanhour,Carrefour - Damanhour,31.03732147,30.45559064,Withdrawal - Deposit - Currency Exchange
00630a64-b655-46a3-8289-a6ead3e6635b,Al-Behera,Damanhour,Sharnoub Community Development Association,31.013742,30.57017929,Withdrawal - Deposit - Currency Exchange
b4cde112-0c68-4248-965b-596e6c8c1883,Al-Behera,Damanhour,We Ciao Mall Albuhira,31.0463062,30.4652941,Withdrawal - Deposit - Currency Exchange
76742b91-a3dc-4fcf-9d98-ca859939da21,Al-Behera,Damanhour,Damanhour University - Faculty of Commerce,31.037774,30.433125,Withdrawal - Deposit - Currency Exchange
7cf51a64-70c5-48a5-9680-71f84b6ad280,Al-Behera,Damanhour,Ranin Damanhour,31.02842246,30.44735618,Withdrawal - Deposit - Currency Exchange
a576e2d2-5886-4179-bb5c-1c90b8beee40,Al-Behera,Damanhour,Damanhour University - Faculty of Pharmacy and Science,31.052879,30.462731,Withdrawal - Deposit - Currency Exchange
1e1eda76-855b-4ebb-97bd-da82defe8e75,Al-Behera,Damanhour,Damanhour University - Faculty of Arts,31.036388,30.457638,Withdrawal - Deposit - Currency Exchange
f7591d9c-f309-44ae-baa6-0b497c56dbbb,Al-Behera,Damanhour,The local unit of the village of Aflaqa,31.06715304,30.47713406,Withdrawal - Deposit
ac27c3dd-b5ca-468e-a8e1-c45aa4ecdb55,Al-Behera,Damanhour,Egypt Exchange Damanhour,31.032126,30.451576,Withdrawal - Deposit - Currency Exchange
7158defd-3585-4af9-b1e8-fab8f2f1a4ec,Al-Behera,Damanhour,Boys Damanhour Secondary Institute Al-Azhar,31.03146,30.459748,Withdrawal - Deposit - Currency Exchange
a0e5aea7-a9aa-48d6-afe5-003856542bbc,Al-Behera,Edco,Edco,31.301812,30.301819,Withdrawal - Deposit - Currency Exchange
6a494c88-0623-414f-afff-eb0d52a3da29,Al-Behera,El Dalangat,Tamwely Al-Dalengat,30.82955574,30.53589971,Withdrawal - Deposit
c96cd087-c572-4367-9d13-1efdb9c83f59,Al-Behera,Etay Al Barroud,Etay Al Barroud,30.880486,30.653383,Withdrawal - Deposit - Currency Exchange
016e3dba-2bef-4af9-8707-aca2827807d6,Al-Behera,Etay Al Barroud,Al Hoota Health Unit,30.86942495,30.70074488,Withdrawal - Deposit - Currency Exchange
324ef8bd-6ca6-447d-b766-acb608313398,Al-Behera,Etay Al Barroud,Agricultural Administration Itai El-Baroud - Beheira,30.88563219,30.65812817,Withdrawal - Deposit - Currency Exchange
cedca9cf-d183-4d6a-a69e-4dd5a847dec7,Al-Behera,Etay Al Barroud,Itay Albaroud Electrical Engineering,30.880486,30.653383,Withdrawal - Deposit - Currency Exchange
6106a949-fd36-411e-b59f-083d56342bde,Al-Behera,Etay Al Barroud,Tamwely Etay Al-Baroud,30.88808594,30.67314422,Withdrawal - Deposit
b5340bdd-1bfa-4327-b0e4-a38ef15c5437,Al-Behera,Housh Eissa,Housh Eissa,30.91770833,30.30043628,Withdrawal - Deposit - Currency Exchange
209ad78c-1b92-41e9-88c6-ea6bf8ba1dbe,Al-Behera,Housh Eissa,Tamwely Hosh Eissa,30.91038848,30.29732155,Withdrawal - Deposit
07b2c2b2-579d-4595-b230-d95278185b87,Al-Behera,Kafr Al-Dawar, Nasser Agency North Tahrir,30.997523,30.136301,Withdrawal - Deposit - Currency Exchange
03e4411b-6d46-4974-8c3d-2106e338ca4e,Al-Behera,Koum Hamada,Koum Hamada,30.763683,30.704811,Withdrawal - Deposit - Currency Exchange
dd96a202-7040-4a3f-80cd-f2ed7a88ecfd,Al-Behera,Koum Hamada,Koum Hamada,30.7637539,30.69974764,Withdrawal - Deposit - Currency Exchange
1697d7f0-756d-4c2f-b450-85e6c23b23cf,Al-Behera,Koum Hamada,Express Ahmed Orabi St. Koum hamada,30.763683,30.704811,Withdrawal - Deposit - Currency Exchange
fc3aaf8c-770f-4d4a-ae86-35b8a22f56d0,Al-Behera,Koum Hamada,The local unit of the village of Al-Najila,30.73383215,30.77503088,Withdrawal - Deposit
929bf30d-f94e-4478-84d5-d33ed8760425,Al-Behera,Rashid,Rashid,31.40631062,30.4238614,Withdrawal - Deposit - Currency Exchange
7104b2f0-7da5-45a3-9e8e-f65b6c2de8e5,Al-Behera,Shabrakhiet,Shabrakhiet,31.03052168,30.71357679,Withdrawal - Deposit - Currency Exchange
0ab5483d-e334-4716-a45f-c7e7db1a2592,Al-Behera,Shabrakhiet,The local unit  of Mahalet Fernoy,30.98201643,30.6542905,Withdrawal - Deposit - Currency Exchange
fa382368-f104-45fc-ba7d-be212558c0f9,Al-Behera,Shabrakhiet,The local unit of the village of Laqana,31.02393382,30.60350721,Withdrawal - Deposit - Currency Exchange
94251151-6c27-409d-b6b6-2b4885731a1f,Al-Behera,Shabrakhiet,The local unit of mahalet Beshr,31.05305248,30.69924925,Withdrawal - Deposit - Currency Exchange
27a35491-1e5e-4361-8346-90a47fcd7037,Al-Behera,Shabrakhiet,Tanmiya Shabrakhit,31.02893672,30.71354872,Withdrawal - Deposit
2d6ba43c-8139-437d-bb0f-1c75bcac3849,Al-Behera,Wady Elnatroon,Wady El- Natroun,30.39891243,30.36785316,Withdrawal - Deposit - Currency Exchange
b7b1880e-9204-466a-8b4c-1632e0b612df,Al-Behera,Wady Elnatroon,Wady Alnatroun Hospital,30.39499563,30.37081886,Withdrawal - Deposit - Currency Exchange
20f6c593-d6b6-4375-8193-c26ec62c4820,Al-Fayoum,Abshaway,Abshaway,29.36074053,30.68325785,Withdrawal - Deposit - Currency Exchange
6e71c0bd-c5f5-4217-92cf-27a1a1a0f13a,Al-Fayoum,Abshaway,Abu Kasah Local Unit,29.392268,30.711708,Withdrawal - Deposit - Currency Exchange
1b5186bb-a169-4782-b11b-960cf3cf55d3,Al-Fayoum,Al Fayoum,Al Fayoum,29.30441208,30.85354564,Withdrawal - Deposit - Currency Exchange
51c2a1ac-2b18-4569-b4e3-b4dc6bb9bc68,Al-Fayoum,Al Fayoum,Fayoum State Council,29.30973607,30.84764079,Withdrawal - Deposit - Currency Exchange
96431460-6e68-4190-956a-2db199f10fd4,Al-Fayoum,Al Fayoum,Tanmiah Alfaioum,29.3029927,30.85296321,Withdrawal - Deposit - Currency Exchange
783883fe-e5a2-4fc3-bdfc-6da08c8d41e9,Al-Fayoum,Al Fayoum,Tanmiah Allahoun,29.20959358,30.9713821,Withdrawal - Deposit - Currency Exchange
08fd79e8-3381-4153-b762-31c513695fb0,Al-Fayoum,Al Fayoum,Tanmiah Sila,29.3524194,30.96981294,Withdrawal - Deposit - Currency Exchange
7c19d147-c5d2-4804-8c67-814053ab643a,Al-Fayoum,Al Fayoum,Fayoum train station,29.308889,30.847499,Withdrawal - Deposit - Currency Exchange
1df8c0ee-07ed-46f6-820b-60b32b159478,Al-Fayoum,Al Fayoum,Fayoum Central 2 - Fayoum sector,29.308199,30.842229,Withdrawal - Deposit - Currency Exchange
8ef5ce36-6038-4749-a183-5c216cf2f047,Al-Fayoum,Al Fayoum,Faculty of Arts Fayoum University ,29.322145,30.837087,Withdrawal - Deposit - Currency Exchange
a88b38fd-286b-4ff7-aa8f-988a0a5f178f,Al-Fayoum,Al Fayoum,Fayoum University,29.319696,30.835641,Withdrawal - Deposit - Currency Exchange
adb79956-eeda-4321-ab73-9b97b64cf0a7,Al-Fayoum,Al Fayoum,Fayoum Azhar region,29.319011,30.851452,Withdrawal - Deposit - Currency Exchange
b7955689-4d25-4add-a80a-ffbe694226c7,Al-Fayoum,Al Fayoum,Etisalat Franchise Elkhabeer Fayoum 1,29.309145,30.85801,Withdrawal - Deposit - Currency Exchange
0d74d265-67f9-451e-9823-275cd55aabce,Al-Fayoum,Al Fayoum,Al Nabawi General Hospital,29.302496,30.838588,Withdrawal - Deposit - Currency Exchange
4ec8754a-9698-4375-bf75-394bf8d33507,Al-Fayoum,Al Fayoum,Fayoum Mills,29.310744,30.85621,Withdrawal - Deposit - Currency Exchange
b561e70e-886c-44bb-9260-0700d1f95fb8,Al-Fayoum,Atsa,Atsa,29.23696578,30.79019445,Withdrawal - Deposit - Currency Exchange
4ce1d01e-c486-4ad9-b16f-2689f07cd6ac,Al-Fayoum,Atsa,Tanmiah Abo Gender,29.24124675,30.67229435,Withdrawal - Deposit - Currency Exchange
0d0a7527-dc48-47fd-99c9-8fc95d13fe45,Al-Fayoum,Atsa,Tanmiah Itsa,29.24143653,30.79518521,Withdrawal - Deposit - Currency Exchange
0134964d-dacd-47a3-bfe1-bc271f8da3bc,Al-Fayoum,Atsa,Orange Atsa,29.237697,30.795299,Withdrawal - Deposit - Currency Exchange
35972654-1508-4004-8792-88da48218ddd,Al-Fayoum,Senouris,Senouris,29.40857519,30.86507307,Withdrawal - Deposit - Currency Exchange
5fcb3c3b-db57-49a3-abbf-89dbada9bd84,Al-Fayoum,Senouris,Sanouras Central Hospital,29.4087034,30.8587204,Withdrawal - Deposit - Currency Exchange
68809880-211b-4ff8-9a2e-0b9195b8cce6,Al-Fayoum,Senouris,local unit anchor,29.41719986,30.81736238,Withdrawal - Deposit - Currency Exchange
21c82cea-eaf6-4987-ad15-2a4aa961d380,Al-Fayoum,Senouris,Local unit Fidimin,29.38125621,30.77755288,Withdrawal - Deposit - Currency Exchange
5c973a67-4363-4992-87f2-2ae320d2f0bc,Al-Fayoum,Senouris,Naqalifa Local Unit,29.39694049,30.82468411,Withdrawal - Deposit - Currency Exchange
01808e38-982f-446c-a3cb-1bc9c78e0afc,Al-Fayoum,Senouris,Tanmiah Sanhour,29.40740388,30.77005311,Withdrawal - Deposit - Currency Exchange
2f47202b-16d8-4682-96d8-d736d6257528,Al-Fayoum,Senouris,Tanmiah Sanouras,29.41540081,30.86429428,Withdrawal - Deposit - Currency Exchange
7eba6ba7-ba71-4848-baff-6a6c50d13f7f,Al-Gharbia,AL Mahala El Kobra,AL Mahala El Kobra,30.96861421,31.16753985,Withdrawal - Deposit - Currency Exchange
ea7e47a0-52e7-4e2b-abd6-7ef4faa8a78a,Al-Gharbia,AL Mahala El Kobra,We Alshoun Sq. Almahalah,30.96638119,31.16466574,Withdrawal - Deposit - Currency Exchange
e3bdcc48-5401-43e1-adf5-cab0da3fa27b,Al-Gharbia,AL Mahala El Kobra,Baladiet Almahalah Club,30.98164511,31.17105489,Withdrawal - Deposit - Currency Exchange
8b3ef479-7dd0-4023-84f8-21d76f558f03,Al-Gharbia,AL Mahala El Kobra,Derb Hashem Youth Center,30.99968171,31.16443431,Withdrawal - Deposit - Currency Exchange
998ee98d-080b-45d9-b26e-e8ea93475954,Al-Gharbia,AL Mahala El Kobra,The local unit of the village of Mahalla Hassan,31.02731056,31.17532168,Withdrawal - Deposit - Currency Exchange
23414208-22f7-4102-946a-c823a32e41ea,Al-Gharbia,AL Mahala El Kobra,Zahran Market Almahala,30.980613,31.173253,Withdrawal - Deposit - Currency Exchange
bf71ddac-dbcf-4bf3-8bc8-ce57f719c2bf,Al-Gharbia,Basyoun,Basyoun,30.93906548,30.81398976,Withdrawal - Deposit - Currency Exchange
a96890a0-8ad2-4695-a3d6-0d0e15051ecd,Al-Gharbia,Basyoun,Tamwely Basioun,30.939667,30.805887,Withdrawal - Deposit - Currency Exchange
f8406aec-b52e-4474-9d79-085ee514722c,Al-Gharbia,El Santa,El Santa,30.72743801,31.12104115,Withdrawal - Deposit - Currency Exchange
c61d55e4-121e-4dae-8281-21b3334ea130,Al-Gharbia,Kotoor,Beltag Local Unit,31.00002271,30.98920359,Withdrawal - Deposit - Currency Exchange
fcdcb3bd-21d2-4f86-a664-255df55711a0,Al-Gharbia,Samanoud,Samanoud,30.95934299,31.24424078,Withdrawal - Deposit - Currency Exchange
bde102ab-d1e2-4ca6-acc3-cfd9390bf592,Al-Gharbia,Samanoud,Tamwely Samanoud,30.961457,31.244514,Withdrawal - Deposit - Currency Exchange
542d0616-e3cc-45d2-aa0a-460cb4da12ae,Al-Gharbia,Tanta,Tanta,30.79276148,30.99065859,Withdrawal - Deposit - Currency Exchange
c685eb28-ec28-45ae-8272-a41c271c35d3,Al-Gharbia,Tanta,Tanta,30.79225101,31.01074536,Withdrawal - Deposit - Currency Exchange
aa0e54d4-39cb-4125-97fb-9f2586ee0ad6,Al-Gharbia,Tanta,Tanta,30.80423864,31.02322083,Withdrawal - Deposit - Currency Exchange
89b998b9-fd9f-428a-bc05-e1a743f82bd2,Al-Gharbia,Tanta,Outlet Mall,30.79802088,31.00799245,Withdrawal - Deposit - Currency Exchange
f13eb30a-ae4d-4728-b332-11f7f5c134c0,Al-Gharbia,Tanta,State Council Western Branch,30.79656463,30.99715466,Withdrawal - Deposit - Currency Exchange
9abe620f-0143-41c3-8bb9-18ae1baa24d1,Al-Gharbia,Tanta,Hyper Casa,30.79273748,30.97869675,Withdrawal - Deposit - Currency Exchange
a9b24497-98e3-4a4d-a8c3-9466d5472aef,Al-Gharbia,Tanta,Health Unit Fisha Selim,30.76841357,30.96798253,Withdrawal - Deposit - Currency Exchange
37204540-2075-4caf-a4a1-da2538e1a0ec,Al-Gharbia,Tanta,Tanta train station,30.78243677,30.99414487,Withdrawal - Deposit - Currency Exchange
043b7757-3fbf-4401-8708-5eaaa3fd4b25,Al-Gharbia,Tanta,The local unit of the village of Kafr Kila Al-Bab,30.69038305,31.14258493,Withdrawal - Deposit - Currency Exchange
b07f8bf5-de39-4857-bf17-55f1ef1721e1,Al-Gharbia,Tanta,Tanta Judges Club,30.78503698,30.99363048,Withdrawal - Deposit - Currency Exchange
30a1f3e0-5598-422e-a6d4-1e947fd4dd63,Al-Gharbia,Zefta,Zefta,30.71034997,31.25036718,Withdrawal - Deposit - Currency Exchange
4438dcee-a159-4d85-aa9c-84ea83ae3c4f,Al-Gharbia,Zefta,The local unit of the village of Shabramles,30.84702629,31.1974472,Withdrawal - Deposit - Currency Exchange
db658f6d-6456-47cb-96eb-f1218b36646e,Al-Gharbia,Zefta,The local unit shershaba Village -Zefta,30.79191647,31.16947357,Withdrawal - Deposit - Currency Exchange
82d0a9a3-c2ee-4db8-9f37-4d6ed7f1c504,Al-Menia,Abu Kerkas,Abu Kerkas,27.93200703,30.82132265,Withdrawal - Deposit - Currency Exchange
a6decb62-abbb-415f-b0c6-44db2b6ccda4,Al-Menia,Abu Kerkas,Abu Qurqas Train Station,27.93002254,30.82199295,Withdrawal - Deposit - Currency Exchange
92cebe7a-fc57-4a93-816b-a6667e864f51,Al-Menia,Abu Kerkas,Tanmiah Balansoura,27.92024435,30.69838252,Withdrawal - Deposit - Currency Exchange
ba779d99-0afa-44fc-b77f-f63472725b92,Al-Menia,Abu Kerkas,Tanmiah Alfekria,27.93174553,30.83314367,Withdrawal - Deposit - Currency Exchange
c4be8bbb-e51d-4b8c-9637-74b76bd6eaaf,Al-Menia,Abu Kerkas,Abo Qurqas City Council,27.93947437,30.82362322,Withdrawal - Deposit - Currency Exchange
e856020d-f1de-48f6-89f7-7709554d3916,Al-Menia,Abu Kerkas,Abo Qorqas Educational Administration,27.93478075,30.8193743,Withdrawal - Deposit - Currency Exchange
df076fce-f0f3-4bf5-9c8e-1a5f60e2240f,Al-Menia,Abu Kerkas,Abu Qurqas Police Station,27.92801188,30.81946122,Withdrawal - Deposit - Currency Exchange
4f3ad6ad-d6c4-432d-98e0-9e3922fe724e,Al-Menia,Abu Kerkas,Abu Qurqas sugar,27.92566223,30.81930375,Withdrawal - Deposit - Currency Exchange
750cfb80-d711-47c7-bbb1-60a7571476cd,Al-Menia,Almenia Algadida,Almenia Algadida,28.0835967,30.80347317,Withdrawal - Deposit - Currency Exchange
75a31c79-0dff-4591-ae94-7bc533c2fefa,Al-Menia,Bani Mazar,Tamwely Bani mazar,28.49436977,30.8070144,Withdrawal - Deposit - Currency Exchange
ae398540-b3df-435e-92ab-cb6b6b29a37b,Al-Menia,Bani Mazar,Bani Mazar Health Insurance,28.50840318,30.79868478,Withdrawal - Deposit - Currency Exchange
ec1375cb-5a9d-4917-ba9e-87993bd2ce22,Al-Menia,Deir Mawas,Deir Mawas,27.64300069,30.85498041,Withdrawal - Deposit - Currency Exchange
8446cbf2-f17c-4abe-b175-24c7bbef3aae,Al-Menia,Deir Mawas,Tamwely Deir Mawas,27.64422897,30.85639037,Withdrawal - Deposit - Currency Exchange
307cbfa6-d33d-41dc-8b33-79d009fe7d16,Al-Menia,Eledwa,Tanmiah Alshikh Masoud,28.65456863,30.68819088,Withdrawal - Deposit - Currency Exchange
92892616-fc5a-4135-9ed6-6243c6b629fe,Al-Menia,Eledwa,Tanmiah Alidwa,28.70218368,30.77195333,Withdrawal - Deposit - Currency Exchange
6f7467a2-d6d4-4650-afdc-95b1aa6a09ee,Al-Menia,Eledwa,We Alidwa Almenia,28.694477,30.766051,Withdrawal - Deposit - Currency Exchange
54bf700f-06db-4e5f-9952-f86b60f83fe7,Al-Menia,Eledwa,Aledwa City Council - Almenia,28.69295375,30.77668019,Withdrawal - Deposit - Currency Exchange
b0aac1c2-8eb0-4bbb-ad95-60fc25674de0,Al-Menia,Eledwa,Industrial school Alidwa,28.70119325,30.7724832,Withdrawal - Deposit - Currency Exchange
b8e40514-0bd4-4984-81e1-a41f9761af9c,Al-Menia,ElMenia,ElMenia,28.09769322,30.75527144,Withdrawal - Deposit - Currency Exchange
b139847b-0557-4363-8b46-5c0dbdc7a836,Al-Menia,ElMenia,ElMenia,28.10039885,30.75354754,Withdrawal - Deposit - Currency Exchange
1a9542d9-ef57-410c-b6df-60a015155b99,Al-Menia,ElMenia,State Council Minya Branch,28.0987095,30.75621145,Withdrawal - Deposit
7174efc2-78b6-4f99-b49a-720f9851750e,Al-Menia,ElMenia,Tanmieah Alshikh Fadl,28.48919331,30.84904755,Withdrawal - Deposit
1f4965e0-b0a5-4f91-90bb-f7a9bee970ae,Al-Menia,ElMenia,Tanmiah Delga,27.642655,30.69791786,Withdrawal - Deposit
1017e96b-2245-481b-88a6-22195c809c07,Al-Menia,ElMenia,Tanmiah Almenia,28.10486134,30.7515505,Withdrawal - Deposit
4864c986-ef1b-4930-8e93-e068f36cec6a,Al-Menia,ElMenia,Tanmiah Alshorafa,28.11685008,30.76905102,Withdrawal - Deposit
7b939da8-ce42-4271-91ca-51940a7b672b,Al-Menia,ElMenia,Higher Institute of Engineering and Technology Industrial Zone,28.020528,30.856247,Withdrawal - Deposit
f3e73ff7-8337-43b3-bda9-a0ada17b4530,Al-Menia,ElMenia,Minya Azhar region,28.10225681,30.75295038,Withdrawal - Deposit
c7a76a25-f365-4369-88f8-e199b904b8b7,Al-Menia,ElMenia,General Authority for Health Insurance - Minya,28.09632289,30.75950544,Withdrawal - Deposit
7f1514e2-ec8a-4ad9-aeb9-e21b2bc4a931,Al-Menia,ElMenia,  Tahrir Mosque Menia,28.11789004,30.74257455,Withdrawal - Deposit
546b1d10-4880-4bba-b4e0-2cbc889dcb85,Al-Menia,ElMenia,Almenia Security Directorate,28.09810544,30.75940849,Withdrawal - Deposit
24eb8f75-f35f-4789-b13c-3bdd5fe8220c,Al-Menia,ElMenia,General Bureau of the Middle Egypt Electricity Company for Electricity Distribution 2,28.09186301,30.76335211,Withdrawal - Deposit
17fc8c7d-e005-452c-93a5-85684b62ff18,Al-Menia,ElMenia,Elfoul Minya Mosque,28.09596611,30.76199947,Withdrawal - Deposit
ac950954-22f9-45e5-b94d-a93b6a5b0944,Al-Menia,ElMenia,Oncology Institute in Minya Governorate,28.09168308,30.7644408,Withdrawal - Deposit
ae90e63e-bb13-4a88-96d8-57a9286a7116,Al-Menia,ElMenia,Directorate of Youth and Sports Menia,28.12142828,30.74163879,Withdrawal - Deposit
a96e8d0a-e1cf-4dcc-9cd8-8ea569643efd,Al-Menia,ElMenia,Middle Egypt electricity sector,28.10914764,30.7516616,Withdrawal - Deposit
fc14e573-7116-4647-8ef5-ebc0ffecb909,Al-Menia,ElMenia,Damaris Mills,28.11451,30.749812,Withdrawal - Deposit - Currency Exchange
a5051775-0eaa-41e6-a194-13028dfacbe5,Al-Menia,ElMenia,Faculty of Computer and Information,28.125224,30.730689,Withdrawal - Deposit - Currency Exchange
7082d4ce-d644-43fb-b4bb-4f313b751e82,Al-Menia,Maghagha,Tamwely Maghagha,28.65020127,30.84215794,Withdrawal - Deposit - Currency Exchange
febe97d4-9d80-4daf-a9be-426aaa00c0e7,Al-Menia,Malawi,Malawi,27.73428402,30.84507229,Withdrawal - Deposit - Currency Exchange
12e93403-f671-4e9f-acc3-e116b82551cb,Al-Menia,Malawi,Tamwely Malawy,27.73837057,30.84180088,Withdrawal - Deposit - Currency Exchange
239987cc-e5c0-4135-97b1-6e413d8e6e32,Al-Menia,Malawi,Abshadat Village Local Unit,27.838853,30.736476,Withdrawal - Deposit - Currency Exchange
d155b692-8677-4718-9f03-6d9b0b47f464,Al-Menia,Matai,Matai,28.41989818,30.78846619,Withdrawal - Deposit - Currency Exchange
a07803d5-9699-4eb0-9836-9504a63799a9,Al-Menia,Samalut,Samalout Health Unit,28.32486602,30.70802829,Withdrawal - Deposit - Currency Exchange
01202e14-3a9b-43d0-bcb7-2510943d8f5c,Al-Menia,Samalut,Samalout Local Unit,28.313739,30.71296808,Withdrawal - Deposit - Currency Exchange
fc7bc215-70f8-4716-8bdf-784af3997718,Al-Menia,Samalut,"One-day surgery hospital, Samalout",28.31058377,30.73588709,Withdrawal - Deposit - Currency Exchange
ff6e4658-1966-4e37-8cdd-59582b0db4df,Al-Monoufia,Al Sadat,Al Sadat,30.3728385,30.49884544,Withdrawal - Deposit - Currency Exchange
473660bb-7211-439f-a907-0aaba5e954f1,Al-Monoufia,Al Sadat,Al Sadat,30.36866623,30.50251143,Withdrawal - Deposit - Currency Exchange
dbc8016f-1d03-4f71-9c53-954a7d023104,Al-Monoufia,Al Sadat,Orange Alsadat,30.36365333,30.51077523,Withdrawal - Deposit - Currency Exchange
6fe57aed-b298-431b-b3d6-f02af88e5146,Al-Monoufia,Al Sadat,Spinneys Sadat,30.37144469,30.50084472,Withdrawal - Deposit - Currency Exchange
07393090-d9c4-4fe5-9360-f13e8a39ef7f,Al-Monoufia,Al Sadat,Brothers Company for Oils and Soap,30.36567583,30.54049558,Withdrawal - Deposit - Currency Exchange
c9901132-c033-44e8-99d2-75000e0c4ffe,Al-Monoufia,Al Sadat,Nile Company for spinning and fine weaving Sadat,30.36645445,30.55657861,Withdrawal - Deposit - Currency Exchange
c390d1a2-b4e6-4756-950e-37550caec766,Al-Monoufia,Al Sadat,Sadat Police Station,30.37081594,30.50226564,Withdrawal - Deposit - Currency Exchange
0789fa36-bbde-499e-827d-461d4bf9a51b,Al-Monoufia,Al Sadat,AlWady Company for Hatchery and Poultry Services,30.36672346,30.55062939,Withdrawal - Deposit - Currency Exchange
44bbe4df-7cc8-493e-814f-1c3874b47248,Al-Monoufia,Ashmoun,Ashmoun,30.27192922,31.02869738,Withdrawal - Deposit - Currency Exchange
13226916-ecb5-44be-a0ed-a36008769d3f,Al-Monoufia,Ashmoun,Tamwely Ashmoun,30.29883387,30.98134531,Withdrawal - Deposit - Currency Exchange
f19e039b-15eb-4948-9fb3-33463e7b2112,Al-Monoufia,Ashmoun,Ramlet Alangab Village Local Unit,30.36995038,30.93897616,Withdrawal - Deposit - Currency Exchange
3034945f-3298-4e4f-ad55-3743599e30b2,Al-Monoufia,Ashmoun,The local unit Saqiet Abo Shaara Village,30.31441356,31.08952502,Withdrawal - Deposit - Currency Exchange
6f25553e-1d1e-430f-80d5-853ce7482c7f,Al-Monoufia,Ashmoun,The local unit Saqiet Abo Shaara Village,30.31441356,31.08952502,Withdrawal - Deposit - Currency Exchange
fb701f41-1367-4d16-b209-26b7139f6da1,Al-Monoufia,Ashmoun,Shanshour Village Local Unit,30.3526449,30.99916144,Withdrawal - Deposit - Currency Exchange
2ab5689f-dc2d-4712-83c6-61986e532bf7,Al-Monoufia,Ashmoun,Qouras Village Local Unit,30.27815952,31.06289184,Withdrawal - Deposit - Currency Exchange
2d4f9f0e-dea0-4cc1-b299-c5184b12ea9e,Al-Monoufia,Ashmoun,Shama Village local Unit,30.3821745,30.91627263,Withdrawal - Deposit - Currency Exchange
698e17be-1c06-47c0-be15-b5fb95a7c23a,Al-Monoufia,Ashmoun,Shama Village local Unit,30.3821745,30.91627263,Withdrawal - Deposit - Currency Exchange
783d3ed4-5dee-4e88-ad42-27b2dc53be12,Al-Monoufia,Ashmoun,The local unit Centris (Menoufia),30.30920433,31.0605589,Withdrawal - Deposit - Currency Exchange
a9ac57ff-b5ae-4239-b980-bfa06921f58e,Al-Monoufia,Berket El Sabaa,Janzour Hospital Baraka Sabaa - Menoufia,30.68148454,31.02411048,Withdrawal - Deposit - Currency Exchange
dab4df36-72f6-4fe9-90a5-4cf0ab68a291,Al-Monoufia,El Bagour,Saman Village Youth Center,30.35225155,31.03265875,Withdrawal - Deposit - Currency Exchange
2ebfa1e9-1567-4955-b706-602e1f707e7d,Al-Monoufia,El Bagour,Family Medicine Unit My Great Qulati,30.37120874,31.01098156,Withdrawal - Deposit - Currency Exchange
938c4d68-f87c-456f-81a8-210b2f662337,Al-Monoufia,El Bagour,Telwana Village Medical Center,30.38273894,31.00064843,Withdrawal - Deposit - Currency Exchange
f6dcf580-6022-4326-8a08-e6bdc3391968,Al-Monoufia,El Bagour,Albagour Central Hospital,30.43281616,31.02891314,Withdrawal - Deposit - Currency Exchange
35805d85-cefa-4e10-aada-b0acb223ae75,Al-Monoufia,El Bagour,Abshish health unit,30.472469,31.087937,Withdrawal - Deposit - Currency Exchange
dca466ed-aae3-429e-9b7a-f715bf753e33,Al-Monoufia,El-Shohadaa,Tamwely Alshohadaa,30.59405097,30.90585703,Withdrawal - Deposit - Currency Exchange
ad41e914-6995-4f33-867a-c92b260d7b28,Al-Monoufia,El-Shohadaa,Alshohadaa City Council,30.59102957,30.897757,Withdrawal - Deposit - Currency Exchange
2acaed64-0b88-4f8f-af8d-35df7dc8cfd5,Al-Monoufia,El-Shohadaa,Denshway Local Unit,30.598833,30.8559,Withdrawal - Deposit - Currency Exchange
ad54039b-a0c2-42ee-b101-39825d15b0a2,Al-Monoufia,Menouf,Damlej Youth Center,30.41308001,30.88472717,Withdrawal - Deposit - Currency Exchange
f367e731-91fa-4b0e-88fe-1bc68bdd75df,Al-Monoufia,Menouf,Doberke Primary School,30.51868673,30.88302688,Withdrawal - Deposit - Currency Exchange
2ea7b38f-e4ac-40e9-a660-95d24098af1f,Al-Monoufia,Menouf,Sadud health unit,30.4191318,30.8983915,Withdrawal - Deposit - Currency Exchange
5eb03466-d748-4fae-abb0-bae4846ae774,Al-Monoufia,Menouf,Kafr Al-Sanabesah Primary School for Boys,30.43935205,30.90385215,Withdrawal - Deposit - Currency Exchange
2fe5d5c1-2b25-467e-9ee6-8e34cae4f98e,Al-Monoufia,Menouf,Family Medicine Unit Shabrablola,30.49784522,30.97212704,Withdrawal - Deposit - Currency Exchange
ab204d9b-356c-4ba5-98fc-b45f103d7193,Al-Monoufia,Menouf,Singerj family medicine unit,30.51409679,30.94724329,Withdrawal - Deposit - Currency Exchange
72c218cf-1d39-4d5a-97e2-d064602379fa,Al-Monoufia,Menouf,Menouf general hospital,30.4720714,30.9273746,Withdrawal - Deposit - Currency Exchange
7d3d7895-3ba6-4bed-9c4c-b03d12e1af44,Al-Monoufia,Menouf,Behwash Schools Complex,30.39943932,30.88810383,Withdrawal - Deposit - Currency Exchange
478e8557-12dc-4df1-a27b-1ff93cca9fb7,Al-Monoufia,Menouf,Abdul Khaleq Rajeh Primary School Al-Azhar Institute,30.254507,31.09067,Withdrawal - Deposit - Currency Exchange
960e4844-948f-45d1-bee4-7b5ee45ee188,Al-Monoufia,Menouf,The local unit Barhim,30.46331579,30.88752245,Withdrawal - Deposit - Currency Exchange
df227535-fca5-4465-a551-8745409ad261,Al-Monoufia,Menouf,Hermel Hospital in Menouf,30.46657104,30.92734596,Withdrawal - Deposit - Currency Exchange
b67824dc-ad49-45e2-ae10-81fff956a559,Al-Monoufia,Menouf,The local unit Fisha Alkoubra -Menouf,30.41426381,30.94450454,Withdrawal - Deposit - Currency Exchange
61a67e79-3001-42c9-8a73-4270b4a8a6a5,Al-Monoufia,Menouf,Zawiet Razin Local Unit,30.413759,30.855562,Withdrawal - Deposit - Currency Exchange
cfec6103-59d8-458a-968a-05d7f9babae6,Al-Monoufia,Menouf,kamshosh Family Medicine Unit,30.416412,30.930803,Withdrawal - Deposit - Currency Exchange
85d8f717-6bc2-4e8d-933e-513cffc94e02,Al-Monoufia,Quesna,Martyr Adly Lotfi Afifi Primary School,30.52599464,31.09437895,Withdrawal - Deposit - Currency Exchange
b4ce99ef-e751-452e-8065-356b239b8027,Al-Monoufia,Quesna,Mit Berrah community building ,30.54785062,31.21164808,Withdrawal - Deposit - Currency Exchange
ce69e664-d888-41a2-85d7-7dd211856919,Al-Monoufia,Quesna,Al Majd Feed Company,30.54543199,31.16948493,Withdrawal - Deposit - Currency Exchange
bbf08886-822b-4abf-91c6-f3ec19376c91,Al-Monoufia,Quesna,The local unit Shobra Bakhom,30.58129391,31.22205861,Withdrawal - Deposit - Currency Exchange
4124550b-c521-465e-b75d-dbd53c07a784,Al-Monoufia,Quesna,Hyper Alsharqia Menoufia,30.499658,31.150009,Withdrawal - Deposit - Currency Exchange
dd0ec84d-57e8-4caf-a020-b8970ef2e906,Al-Monoufia,Sers Ellian,Sers Ellian,30.45158606,30.96481114,Withdrawal - Deposit - Currency Exchange
c81870a2-17d5-4447-9ba8-a782bd9632b2,Al-Monoufia,Shebin El Koum,Ibn Alfared Shebin Alkoum islamic Branch 3,30.55424923,31.00715461,Withdrawal - Deposit
8d18a40a-6e4d-4c03-82e4-bff5f79c3de1,Al-Monoufia,Shebin El Koum,Ibn Alfared Shebin Alkoum islamic Branch 2,30.55427898,31.00715758,Withdrawal - Deposit
ac665318-78c3-4abb-9f6d-c711e6cf7419,Al-Monoufia,Shebin El Koum,Ibn Alfared Shebin Alkoum islamic Branch 1,30.55432657,31.00716056,Withdrawal - Deposit
75e261e1-5ba2-41ff-9704-537cfa2d986d,Al-Monoufia,Shebin El Koum,Shebin El Koum,30.55430137,31.00711653,Withdrawal - Deposit - Currency Exchange
ca714c90-d31e-4b48-902d-c67d27a288df,Al-Monoufia,Shebin El Koum,Shebin El Koum,30.5559892,31.01096047,Withdrawal - Deposit - Currency Exchange
994f8aa8-d6e5-40f3-b66c-656f5d555408,Al-Monoufia,Shebin El Koum,Shebin Alkoum Police office,30.55794079,31.00679304,Withdrawal - Deposit - Currency Exchange
feea6254-9bbe-4ed7-b4d9-fc090ac0fda0,Al-Monoufia,Shebin El Koum,Mit Khalaf diets Hospital,30.54383033,31.04700979,Withdrawal - Deposit - Currency Exchange
e7512fdd-efc9-459c-b378-f9cf8449e2e2,Al-Monoufia,Shebin El Koum,Istabari Youth Center,30.49603177,31.05035042,Withdrawal - Deposit - Currency Exchange
e6c82158-36e3-4726-ad59-a76fda3558b4,Al-Monoufia,Shebin El Koum,State Council Menoufia Branch,30.55825047,31.00643133,Withdrawal - Deposit - Currency Exchange
88e7059c-e21a-4437-a44d-d6b7fe4c8882,Al-Monoufia,Shebin El Koum,Family Medicine Unit in Mit Masoud,30.52375008,31.04739285,Withdrawal - Deposit - Currency Exchange
2feba4b1-d01e-4652-98ce-2c4974bb1800,Al-Monoufia,Shebin El Koum,Shebin Alkoum train station,30.56892296,30.99648812,Withdrawal - Deposit - Currency Exchange
a3f4574c-9990-4aa1-a36b-130bde7391f5,Al-Monoufia,Shebin El Koum,Al Rashid Business Hotel - Monufia,30.55524957,30.55524957,Withdrawal - Deposit - Currency Exchange
f283e345-87c9-44d1-b87d-32b0e8501510,Al-Monoufia,Shebin El Koum,19011 Pharmacy Shebin Alkoum,30.55806921,31.01022237,Withdrawal - Deposit - Currency Exchange
3ebae75c-e72d-4e46-90e4-ca97c2dc2b85,Al-Monoufia,Tala,Qashtoukh religious Institute,30.74265782,30.93409388,Withdrawal - Deposit - Currency Exchange
03bf11ff-1d2f-495e-a111-790fb155f17f,Al-Monoufia,Tala,Tamwely  Tala,30.67424489,30.93573386,Withdrawal - Deposit - Currency Exchange
04fdd139-7640-42fb-acb9-5054c478f942,Al-Monoufia,Tala,The health unit in the village of Bitbes,30.6549948,30.9895224,Withdrawal - Deposit - Currency Exchange
15e042e3-b264-4563-9ab6-a9684572d84c,Al-Monoufia,Tala,Tala Central Hospital,30.68453152,30.95057886,Withdrawal - Deposit - Currency Exchange
c424d9f7-9d3e-4f3e-86c8-a732a473091b,Al-Monoufia,Tala,Kafr Alaskaria Helath Unit,30.657662,31.003798,Withdrawal - Deposit - Currency Exchange
d2740d85-008f-4144-b456-1dbe54978a27,Al-Sharkia,10th of Ramadan,10th of Ramadan,30.241871,31.726754,Withdrawal - Deposit - Currency Exchange
2b93dded-6c04-4274-afa4-bd9cc0197f7c,Al-Sharkia,10th of Ramadan,Arafa Mall 10th of Ramadan,30.264861,31.760616,Withdrawal - Deposit - Currency Exchange
0e32d24f-9a4a-4d9f-b68c-5f2916fcbb0d,Al-Sharkia,Abu Hammad,Abu Hammad,30.53301507,31.67337145,Withdrawal - Deposit - Currency Exchange
7efbbc3a-11c2-436d-af7e-961e785f3199,Al-Sharkia,Abu Kbier,We Abo Kebir,30.724684,31.670823,Withdrawal - Deposit - Currency Exchange
796e7921-42c3-4530-8e03-5fbba4ccf8cc,Al-Sharkia,Abu Kbier,Tal Hwein Youth Center,30.59343073,31.43233596,Withdrawal - Deposit
30ce2b8e-015a-42ce-a2b2-3bff7df9e966,Al-Sharkia,Al Qurayn,The local unit of the city of Al-Qurain,30.60490349,31.74675778,Withdrawal - Deposit - Currency Exchange
5202a5dd-1b1b-4568-ae28-ab5aba385260,Al-Sharkia,Al Qurayn,Etsalat Alqorin Almashiakha,30.614061,31.736878,Withdrawal - Deposit - Currency Exchange
29b72b7e-07ba-46fb-b9b7-b06732a41167,Al-Sharkia,Al Qurayn,Etsalat Alqorin Alqalaa,30.610355,31.743698,Withdrawal - Deposit - Currency Exchange
1fba7617-3e20-4a1c-97a6-64aa7af9501f,Al-Sharkia,Al Qurayn,Tanmiya San Al-Hagar,30.974213,31.871003,Withdrawal - Deposit
2880946b-89f9-4a96-8d1b-6afad02c47ed,Al-Sharkia,Alzaqaziq,Bahnabay local unit,30.653714,31.475413,Withdrawal - Deposit - Currency Exchange
95e0cf79-1df7-403b-8bce-67d1947fa92b,Al-Sharkia,Alzaqaziq,Shaheen Center Zagazig,30.588654,31.49904,Withdrawal - Deposit - Currency Exchange
66f88d92-33f4-4e72-b4e8-cda05e4d6910,Al-Sharkia,Alzaqaziq,Alsharqia Traffic Department,30.56943,31.508034,Withdrawal - Deposit - Currency Exchange
00b1718b-2a03-4a3c-a596-f2f704d86912,Al-Sharkia,Awlad Sakr,Awlad Sakr,30.93099163,31.70383045,Withdrawal - Deposit - Currency Exchange
68feb35d-8ea2-43ce-a545-481f98cdc3eb,Al-Sharkia,Awlad Sakr,Tanmiah Awlad Saqr,30.934196,31.69812,Withdrawal - Deposit - Currency Exchange
b75b4204-9c22-451c-a1ac-9596c4b66cf7,Al-Sharkia,Bilbeis,Bilbeis,30.42080824,31.56076424,Withdrawal - Deposit - Currency Exchange
d2ed005a-a5df-444d-9a11-4a606d01684a,Al-Sharkia,Bilbeis,Awlad Sief Local Unit,30.4690279,31.56960889,Withdrawal - Deposit - Currency Exchange
0e7fe376-2dea-42d5-80d3-8c9484aae695,Al-Sharkia,Bilbeis,Sun Mall Belbeis,30.42056539,31.56406853,Withdrawal - Deposit - Currency Exchange
caea0521-d9ac-4829-89f1-d77fdad1107a,Al-Sharkia,Bilbeis,Mit Gaber Health Unit,30.45575815,31.4514199,Withdrawal - Deposit - Currency Exchange
3b888bfc-5b4c-46e2-80e1-543a18bf67a1,Al-Sharkia,Bilbeis,Zawamel central hospital,30.348433,31.434599,Withdrawal - Deposit - Currency Exchange
228dcb0c-7414-4b76-8981-6f39ffff2bda,Al-Sharkia,Bilbeis,Command of the Thunderbolt Forces Anshas - Belbeis,30.37576774,31.45051733,Withdrawal - Deposit
24045475-3d9d-45cb-96db-a67e6cdb6231,Al-Sharkia,Bilbeis,Tanmiya Monsha'et Abu Omar,30.91588251,32.02038014,Withdrawal - Deposit
18348ade-c60e-4966-b5a8-ffdb5a351070,Al-Sharkia,Bilbeis,Belbeis - Alsharkia Governorate,30.404211,31.581005,Withdrawal - Deposit - Currency Exchange
a5974b40-8d70-45a3-9886-ebe4d93364bd,Al-Sharkia,Diarb Negm,Diarb Negm,30.74992346,31.45103559,Withdrawal - Deposit - Currency Exchange
115a1fdb-195d-437a-9550-3bf4798c2c4d,Al-Sharkia,Diarb Negm,Diarb Negm,30.752565,31.459198,Withdrawal - Deposit - Currency Exchange
9e706479-1d6f-498b-9748-2caa88426471,Al-Sharkia,Diarb Negm,Shubra Village Youth Center Picture,30.72499207,31.37076875,Withdrawal - Deposit - Currency Exchange
32cf64e8-96fd-4af7-b7f8-0edee37fd319,Al-Sharkia,El Ebrahimia,We Alibrahemia,30.722168,31.564779,Withdrawal - Deposit - Currency Exchange
7a71b1b8-445c-4503-a448-6ab1727aae62,Al-Sharkia,El Hosinia,El Hosinia,30.86291373,31.91388731,Withdrawal - Deposit - Currency Exchange
611bee6a-4662-4748-9cdf-a5439c4349a2,Al-Sharkia,El Hosinia,Tamwely Alhossania Alsharqia,30.863751,31.914976,Withdrawal - Deposit - Currency Exchange
29af7d65-af60-41f8-b4b7-536e4e29d9a1,Al-Sharkia,El Hosinia,Tamwely Alhossania Alsharqia,30.863751,31.914976,Withdrawal - Deposit - Currency Exchange
83dc0763-72ab-4d20-b24d-1c536bd121f7,Al-Sharkia,El Hosinia,We Alhusainia,30.86191643,31.9147469,Withdrawal - Deposit - Currency Exchange
8a1b020f-7065-4d38-b907-a3a9d17394e9,Al-Sharkia,El Qanaiat,Tanmiya Al Qnaiyat,30.6147243,31.45917455,Withdrawal - Deposit
2093420b-0ef5-4b11-b452-c69800e91944,Al-Sharkia,El Salihia,El Salihia,30.77835504,31.98975518,Withdrawal - Deposit - Currency Exchange
18d2e164-ae90-4384-86bd-4ea4c4f26f14,Al-Sharkia,Faqous,Etisalat - Franchise Al Momen - Faqous,30.73009881,31.79252642,Withdrawal - Deposit - Currency Exchange
47c0ba1c-165e-4f00-8bfa-d83fd2b4f897,Al-Sharkia,Faqous,We Faqous 1,30.723218,31.793586,Withdrawal - Deposit - Currency Exchange
0b6a27c3-d72d-467c-8dc0-7167b29eb6fa,Al-Sharkia,Faqous,Tanmiya Faqous,30.73379416,31.80105371,Withdrawal - Deposit
302cec62-5c9d-418a-bc1f-de9728c50ce0,Al-Sharkia,Hahya,Hahya,30.67211941,31.59191729,Withdrawal - Deposit - Currency Exchange
ba437e1d-9044-4c61-a7eb-26129ebd80b8,Al-Sharkia,Hahya,The local unit in the village of Toukh,30.69118362,31.65700641,Withdrawal - Deposit
1da2d5db-f8f1-4f33-8336-47aea9645f40,Al-Sharkia,Hahya,Tanmiah Hehia,30.673612,31.5926,Withdrawal - Deposit - Currency Exchange
5dd594e4-6240-43f6-bad2-b1eb286e6c2e,Al-Sharkia,Kafr Sakr,Tamwely Kafr Saqr,30.79233528,31.63064331,Withdrawal - Deposit - Currency Exchange
878eaa0a-1f13-4a13-8b99-0153f6b05f24,Al-Sharkia,Mashtoul El Souk,Mashtoul El Souk,30.36827817,31.38107115,Withdrawal - Deposit - Currency Exchange
f2a67614-dacf-4f44-94e8-4cdf5bbca0de,Al-Sharkia,Mashtoul El Souk,Tamwely Mashtoul Alsouq,30.3590524,31.38238838,Withdrawal - Deposit - Currency Exchange
65adb2ba-802c-4b70-b8f7-969b3027cde8,Al-Sharkia,Mashtoul El Souk,Tamwely Mashtoul Alsouq,30.3590524,31.38238838,Withdrawal - Deposit - Currency Exchange
63d5da63-90cb-4f65-b292-bef3b0bfc696,Al-Sharkia,Minia AL Kamh,Tamwily Minya Al-Qamh,30.51878462,31.3512348,Withdrawal - Deposit - Currency Exchange
cb96fd2d-273c-4605-b035-8be3ebb85067,Al-Sharkia,Minia AL Kamh,Alsaadien Central Hospital,30.452706,31.37026,Withdrawal - Deposit - Currency Exchange
7cd2df12-90b3-456f-86ca-417d0d62b4ee,Al-Sharkia,Minia AL Kamh,frinds ADSL,30.517965,31.34496,Withdrawal - Deposit - Currency Exchange
43f23e74-f1ff-4d7a-8d46-30b3df9e1d81,Al-Sharkia,Minia AL Kamh,We Menia Alqameh Handaset Alrai,30.520032,31.343317,Withdrawal - Deposit - Currency Exchange
d705b1f7-bbca-468d-8cc7-327aa6c15d7d,Al-Sharkia,Minia AL Kamh,Alnaamnah Health Unit,30.464554,31.388603,Withdrawal - Deposit - Currency Exchange
22c56511-f7bc-4766-b32c-c44468103b88,Al-Sharkia,Zagazig,Zagazig,30.58729516,31.50355567,Withdrawal - Deposit - Currency Exchange
533530ad-c6cd-44dd-9d0d-bd0dd75765a2,Al-Sharkia,Zagazig,Zagazig,30.586102,31.482635,Withdrawal - Deposit - Currency Exchange
122855c0-7e62-4cef-bb52-2dcd87ea28a9,Al-Sharkia,Zagazig,Zagazig,30.5879569,31.47966358,Withdrawal - Deposit - Currency Exchange
191cd580-0a2c-4b68-bd56-f520af97da1a,Al-Sharkia,Zagazig,Carrefour Alzaqaziq,30.60608833,31.47978219,Withdrawal - Deposit - Currency Exchange
ee78a7b0-d3ed-4a2f-b95d-b1906967422e,Al-Sharkia,Zagazig,Ranin Zagazig ,30.59003795,31.49021482,Withdrawal - Deposit - Currency Exchange
4fa69b27-c431-42c8-87b3-b1edea75dad2,Al-Sharkia,Zagazig,State Council Sharkia Branch,30.57416718,31.50165442,Withdrawal - Deposit - Currency Exchange
df78576f-54ec-4aa5-97e4-2d94a563ab5b,Al-Sharkia,Zagazig,Etsalat Zagazig Governorate ,30.590702,31.500801,Withdrawal - Deposit - Currency Exchange
3b3c1cc4-caff-462a-9eff-d7e275766714,Al-Sharkia,Zagazig,Faculty of Education - Zaqaziq University,30.595333,31.510692,Withdrawal - Deposit - Currency Exchange
9025aae4-4e60-4bed-b01d-3d8cb4d66206,Al-Sharkia,Zagazig,Tal Hwein Youth Center,30.59343073,31.43233596,Withdrawal - Deposit
25b9653c-51e3-43f5-8f46-b8c77dd7c9a7,Al-Wadi Al-Jadid,Al Dakhla,Tanmiya Al-Dakhla,25.49555315,28.98301892,Withdrawal - Deposit
ef29b4e5-706e-4f26-8663-15be11b3bf26,Al-Wadi Al-Jadid,Al Farfarah,Al Farfarah,27.06740664,27.97224309,Withdrawal - Deposit - Currency Exchange
47e87283-6300-45be-8e8f-257a4996ee8d,Al-Wadi Al-Jadid,Alkharga,Kharga branch 4,25.44804868,30.54237848,Withdrawal - Deposit
eb5a39f2-07e2-4459-844c-bd75e1b870a7,Al-Wadi Al-Jadid,Alkharga,Tamwily Alkharga,25.44389,30.543196,Withdrawal - Deposit - Currency Exchange
aa23ba62-87fb-4ec3-90cc-5f32320c6eb2,Al-Wadi Al-Jadid,Balat,tebida Village local Unit,25.511206,29.340503,Withdrawal - Deposit - Currency Exchange
a66ceb82-0e9b-4449-b15c-1080d2cdc722,Alexandria,Abis,Tianbei Limited Company,31.204438,30.003317,Withdrawal - Deposit - Currency Exchange
c96e73a2-002b-4f8d-9480-8f53daef7d16,Alexandria,Abu Kir,Fathallah Abu Qir,31.30442657,30.06583038,Withdrawal - Deposit - Currency Exchange
7db3b415-5fff-42b0-b4b7-252223200426,Alexandria,Abu Kir,Fathallah Abu Qir,31.30442657,30.06583038,Withdrawal - Deposit - Currency Exchange
13c795c2-b99d-4565-b629-50a81238fe41,Alexandria,Abu Kir,College of Physical Education Abo Qir,31.305476,30.058839,Withdrawal - Deposit - Currency Exchange
fcdd1472-6dfc-4594-aa3e-9a3935e95e6b,Alexandria,Al Ibrahimeya,Al Ibrahimeya,31.20783111,29.92912785,Withdrawal - Deposit - Currency Exchange
c2f6b3d4-d092-4252-b292-f39b5f46c148,Alexandria,Al Nozha,Al Nozha,31.205287,29.966553,Withdrawal - Deposit - Currency Exchange
db05784b-2281-4fcf-9d41-35c917404178,Alexandria,Al-Ameriya,Al-Ameriya,31.02461257,29.77520658,Withdrawal - Deposit - Currency Exchange
3776d2c0-8f53-4621-9fbf-43afde28dc6e,Alexandria,Al-Ameriya,Watania Merghem,30.98611447,29.77750609,Withdrawal - Deposit - Currency Exchange
6f6c52fd-8e3a-44a4-b4c2-1c59bf41f215,Alexandria,Alasafra,Tanmiah Alasafra Qebly,31.26586658,30.00230829,Withdrawal - Deposit - Currency Exchange
13a3188f-ee45-4e40-a8d9-69674a413274,Alexandria,Alasafra,We 45 St. -Alexandria,31.268117,29.999928,Withdrawal - Deposit - Currency Exchange
23854126-5a55-463e-b8c1-8cd7ac8c1478,Alexandria,Alasafra,We Alasafra,31.270674,30.005719,Withdrawal - Deposit - Currency Exchange
61275c7f-a326-4384-9398-b1b470adba84,Alexandria,Alasafra,We Alasafra,31.270674,30.005719,Withdrawal - Deposit - Currency Exchange
75765a47-e977-49c5-baab-620ffb0cbd85,Alexandria,Alhadara,Alagzakhan Pharamcy D. Ahmed Faied - Wabour Almaiah,31.198425,29.918139,Withdrawal - Deposit - Currency Exchange
fe722ee1-1218-45d3-9dec-0da5a36284ea,Alexandria,Alhadara,We Alhadarah Alexandria,31.201354,29.933821,Withdrawal - Deposit - Currency Exchange
49e1510e-09e1-4f67-9914-78c83c8729d8,Alexandria,Al-Montaza,Carrefour -Royal Plaza Mall,31.28281636,30.02355952,Withdrawal - Deposit - Currency Exchange
a9b6caa7-d7d4-4cf5-b938-e616d244b189,Alexandria,Al-Montaza,Tanmiah Almaraghy,31.20866416,30.02061591,Withdrawal - Deposit - Currency Exchange
af9bffb1-5480-4540-adf1-47354d926c59,Alexandria,Al-Montaza,Aman Alsiouf,31.24098658,29.99595906,Withdrawal - Deposit - Currency Exchange
f3bf7ce8-a19c-44ad-ac9f-4b2125b070a7,Alexandria,Al-Montaza,Gomla Market Miami,31.27067819,29.99780476,Withdrawal - Deposit - Currency Exchange
458b1325-056f-4ba3-8c4d-9ee05de276ac,Alexandria,Al-Montaza,Aman Toson,31.30043635,30.06057133,Withdrawal - Deposit - Currency Exchange
660679fc-b3a1-4852-915a-d86499d95684,Alexandria,Al-Qabari,Al-Qabari,31.18446061,29.88724765,Withdrawal - Deposit - Currency Exchange
5bcf3ab6-6bc7-4085-b418-52a069d6c611,Alexandria,Alraml,Drinking water station 2 - Al-Awayed - Al-Seyouf - Alexandria,31.22281326,29.99015722,Withdrawal - Deposit - Currency Exchange
cc4aca83-9f30-4f97-b94f-0eedbbe3870a,Alexandria,Alraml,Tanmiah Ezbet Hegazy,31.220319,29.965227,Withdrawal - Deposit - Currency Exchange
aaa79213-f97e-4093-b957-5e560732da9c,Alexandria,Bab Sharq,Aman Al-Hadra,31.20120876,29.9324492,Withdrawal - Deposit - Currency Exchange
20573536-1a0a-4470-9a52-72402c4192b3,Alexandria,Borg Al Arab,Borg Al Arab,30.88285501,29.57748186,Withdrawal - Deposit - Currency Exchange
e5b3490a-f6e6-47df-ab64-07ded41f5b75,Alexandria,Borg Al Arab,Borg Al Arab,30.86633208,29.57656735,Withdrawal - Deposit - Currency Exchange
b94d81aa-dc6f-482c-bbbd-275c9e661c37,Alexandria,Borg Al Arab,Borg Al Arab,30.938137,29.691282,Withdrawal - Deposit - Currency Exchange
4929baac-33cd-4ff0-9a64-7af435abc675,Alexandria,Borg Al Arab,Borg Al Arab,31.006582,29.637104,Withdrawal - Deposit - Currency Exchange
ec6d1e0d-1dcb-480d-8b80-e1e498ba6709,Alexandria,Borg Al Arab,Watania Burj Al Arab,30.93271768,29.63997033,Withdrawal - Deposit - Currency Exchange
78090c27-a0bb-4af3-9a26-5598003f7f72,Alexandria,Borg Al Arab,Franchise Borg Alarab,30.88462759,29.57352043,Withdrawal - Deposit - Currency Exchange
5d47ae72-5027-4d6c-b432-a39092367fa0,Alexandria,Borg Al Arab,Orouba Mall,31.006582,29.637104,Withdrawal - Deposit - Currency Exchange
ec77f6af-a67e-4cc3-bbbd-7fb875dfd4c8,Alexandria,Borg Al Arab,Burj Alarab airport arrival,30.938137,29.691282,Withdrawal - Deposit - Currency Exchange
8dd27d73-5b46-4996-ba1e-5f60145f9e1b,Alexandria,Borg Al Arab,Bahig Village Local Unit,30.923109,29.593144,Withdrawal - Deposit - Currency Exchange
641ed779-f14e-44ea-8885-4d8bb2b629d3,Alexandria,Borg Al Arab,Gomla market K 40,30.978234,29.57327,Withdrawal - Deposit - Currency Exchange
8d19c2b3-d766-4f88-9c90-6fda7b0530b9,Alexandria,Camp Shizar,Camp Shizar,31.21539805,29.9224125,Withdrawal - Deposit - Currency Exchange
51c63a2d-0e8f-496a-8c3b-1ae3c7e147d7,Alexandria,Dekhela,Dekhela,31.135163,29.821777,Withdrawal - Deposit - Currency Exchange
f864ba8e-f9b5-4e7e-87dc-85640d145320,Alexandria,Dekhela,Tanmiah Albitash,31.12107616,29.78680833,Withdrawal - Deposit - Currency Exchange
bb04b7aa-06f4-4c9b-81d6-1cda8dd1db62,Alexandria,Dekhela,Express Aldekhila,31.135163,29.821777,Withdrawal - Deposit - Currency Exchange
63ea0de0-8494-42d8-92ab-f7050d8bd540,Alexandria,El Gomrok,El Gomrok,31.20186626,29.88275782,Withdrawal - Deposit - Currency Exchange
5eb56767-c0c3-443d-910c-de82e242a9af,Alexandria,El Gomrok,El Gomrok,31.201048,29.880647,Withdrawal - Deposit - Currency Exchange
476f25b5-68ed-42d0-b5f0-7074621ba939,Alexandria,El Gomrok,El Gomrok,31.20636254,29.8823516,Withdrawal - Deposit - Currency Exchange
11693b9a-cd91-45fa-b54c-8b63f6b21c3b,Alexandria,El Gomrok,The naval base of Ras Elteen,31.201048,29.880647,Withdrawal - Deposit - Currency Exchange
6f373260-db6b-4885-b38f-e7255865290a,Alexandria,El Gomrok,Alexandria sea port branch 2,31.18584955,29.87997356,Withdrawal - Deposit
691962e2-0612-48c0-b67f-009586c498e5,Alexandria,El Gomrok,Alexandria sea port branch 1,31.18568774,29.88000211,Withdrawal - Deposit
58d8804e-25e3-4adb-9d36-d2d27f3e21f1,Alexandria,El-Agami,El-Agami,31.10462485,29.7660773,Withdrawal - Deposit - Currency Exchange
80beb321-d73a-4f76-b9be-4002c047954b,Alexandria,El-Agami,El-Agami,31.106806,29.783036,Withdrawal - Deposit - Currency Exchange
d8781ce6-9794-4d3c-a348-dc86a5e3ba94,Alexandria,El-Agami,El-Agami,31.100639,29.773207,Withdrawal - Deposit - Currency Exchange
7c78ca1c-ea06-4473-b7a3-145a2fe35ab2,Alexandria,El-Agami,El-Agami,31.11808371,29.79076231,Withdrawal - Deposit - Currency Exchange
bb415dbf-49da-42c9-ac9d-4e605a9e267d,Alexandria,El-Agami,El-Agami,31.079921,29.737225,Withdrawal - Deposit - Currency Exchange
9b89534b-31ed-4659-9638-39c575cdc64c,Alexandria,El-Agami,Carrefour - City Lite Mall,31.24583989,29.99451309,Withdrawal - Deposit - Currency Exchange
75423203-65d0-4f05-8199-498d1dd49bf4,Alexandria,El-Agami,Raneen Al-Ajami,31.08628512,29.74738974,Withdrawal - Deposit - Currency Exchange
246492ef-a0df-4889-a141-f2e89770ddc0,Alexandria,El-Agami,Mini Franchise k 21,31.079921,29.737225,Withdrawal - Deposit - Currency Exchange
2c2b49bb-0f72-4ba9-949b-69a930ffb89f,Alexandria,El-Agami,Super Express Hanovil Agamy,31.100639,29.773207,Withdrawal - Deposit - Currency Exchange
11ebe921-d5b0-4701-9de8-b92f5b967ca8,Alexandria,El-Agami,Super Express Aldaraisa Alagamy,31.106806,29.783036,Withdrawal - Deposit - Currency Exchange
151feffe-d1ce-46eb-80cf-af14dae0bf8a,Alexandria,El-Atareen,El-Atareen,31.20563986,29.90510473,Withdrawal - Deposit - Currency Exchange
0db52ba2-6549-4c59-a29f-6e006136a9c9,Alexandria,El-Atareen,El-Atareen,31.200486,29.896771,Withdrawal - Deposit - Currency Exchange
0ec7ad13-5965-4061-afaf-04a257fc9d5a,Alexandria,El-Atareen,Alex Tour,31.19975631,29.90168909,Withdrawal - Deposit - Currency Exchange
228db00e-0bc4-414a-bf30-fc600e3d56b7,Alexandria,El-Atareen,State Council Alexandria Branch 2,31.2014156,29.90901294,Withdrawal - Deposit - Currency Exchange
90045cc9-dcaa-4770-b7b6-091d62906f4f,Alexandria,El-Atareen,Windsor Alexandria,31.200486,29.896771,Withdrawal - Deposit - Currency Exchange
0da760f9-6093-4186-9b1f-6ff00c13ccd5,Alexandria,El-Atareen,Talaat Harb Alexandria Branch,31.196442,29.900358,Withdrawal - Deposit - Currency Exchange
847e3693-e467-45f7-9672-6bc6dc1502b4,Alexandria,El-Atareen,Samsung Alexandria,31.199607,29.904713,Withdrawal - Deposit - Currency Exchange
a91a4344-5447-46d8-ba49-b2e5a3ea4270,Alexandria,El-Mamoura,El-Mamoura,31.28686809,30.03134411,Withdrawal - Deposit - Currency Exchange
838f0331-1321-4442-9eea-71d95f582fc1,Alexandria,El-Menshya,El-Menshya,31.197056,29.893067,Withdrawal - Deposit - Currency Exchange
e3e269e3-9059-4fa3-9777-2b8e78fd5f5c,Alexandria,El-Seyouf,El-Seyouf,31.23424504,29.99290858,Withdrawal - Deposit - Currency Exchange
17e6bae1-9885-4b04-ab01-8dda9a9b9498,Alexandria,El-Seyouf,Raneen Al-karma,31.24582503,29.99034465,Withdrawal - Deposit - Currency Exchange
405bb36a-e00a-4cce-bd02-1c0ccff73eb8,Alexandria,Glim,Glim,31.239543,29.960454,Withdrawal - Deposit - Currency Exchange
b1bf6888-cf3e-4318-8913-96ffea1893bf,Alexandria,Glim,Mini Franchise Gleem,31.239543,29.960454,Withdrawal - Deposit - Currency Exchange
01f8714f-8cb1-48d8-8390-16056fe939c8,Alexandria,King Mariout,King Mariout,30.999926,29.733273,Withdrawal - Deposit - Currency Exchange
90f2be20-c16e-4bd5-b361-c15137924b1a,Alexandria,King Mariout,Tulip Sports City Borg Alarab Hotel,30.999926,29.733273,Withdrawal - Deposit - Currency Exchange
08c79421-6356-47f7-8c28-9dbffedfe56e,Alexandria,Loran,Loran,31.27883055,30.01111865,Withdrawal - Deposit - Currency Exchange
6fdb9754-ab64-432b-9d93-176b1b39b71c,Alexandria,Loran,Loran,31.245433,29.966715,Withdrawal - Deposit - Currency Exchange
e62484b3-6910-4c7a-a4c6-9ed23581720c,Alexandria,Loran,San Stefano Mall Alexandria attached to the Four Seasons Hotel,31.245433,29.966715,Withdrawal - Deposit - Currency Exchange
de461b2f-d3e5-48c6-953e-0f1e10b560a7,Alexandria,Loran,San Stefano Mall Alexandria attached to the Four Seasons Hotel,31.245433,29.966715,Withdrawal - Deposit - Currency Exchange
0861c74c-2447-49ca-a0e9-da7e23c59f2c,Alexandria,Mahatet El Raml,Mahatet El Raml,31.19573776,29.89956485,Withdrawal - Deposit - Currency Exchange
64b222b2-4dd5-45a8-a865-74cf87a62137,Alexandria,Mahatet El Raml,Attarin,31.1970895,29.89839497,Withdrawal - Deposit - Currency Exchange
8e8745ca-922a-4e83-a6db-5bab420684a0,Alexandria,Miami,Miami,31.27062994,29.99449947,Withdrawal - Deposit - Currency Exchange
978c0aee-befd-49fe-809c-d417454d5f5e,Alexandria,Miami,Tianbei Limited Company,31.268295,29.995392,Withdrawal - Deposit - Currency Exchange
207d5c3b-d57e-4193-908c-21f849240e00,Alexandria,Miami,Naval Academy Abo Miami,31.265602,29.998212,Withdrawal - Deposit - Currency Exchange
b3bff689-48ea-4b69-a232-b294858057d6,Alexandria,Mina Albasal,Mina Albasal,31.171299,29.8825,Withdrawal - Deposit - Currency Exchange
0ef85f0c-6b03-49ba-9ae1-4df534b51068,Alexandria,Mina Albasal,Orange Amir Loulou St.,31.171299,29.8825,Withdrawal - Deposit - Currency Exchange
0b405207-d62c-4702-bcae-bbc8cc864b46,Alexandria,Mina Albasal,Aman Al-Wardian,31.17057899,29.88035181,Withdrawal - Deposit - Currency Exchange
8b46cba2-2c88-4c02-b8f5-bef7fbc5058f,Alexandria,Mina Albasal,Bashayer Al Khair Branch 2,31.16333635,29.88756811,Withdrawal - Deposit
24dfa73a-0aad-4eca-b5d2-5cf474516523,Alexandria,Mina Albasal,Bashayer Al Khair Branch 1,31.163368,29.88764336,Withdrawal - Deposit
39d01ca8-bdcf-4afc-b961-67f560341f2d,Alexandria,Moharam Bek,Moharam Bek,31.18571996,29.90261065,Withdrawal - Deposit - Currency Exchange
76d46f83-0f92-4aea-b86e-5079d81ef408,Alexandria,Moharam Bek,Moharam Bek,31.19350132,29.91368355,Withdrawal - Deposit - Currency Exchange
167bc5cb-ec4c-4acd-b315-78c23cae6a60,Alexandria,Moharam Bek,Moharam Bek,31.169119,29.93065,Withdrawal - Deposit - Currency Exchange
25720f23-5a5e-419f-8b40-f58e30063a41,Alexandria,Moharam Bek,Carrefour City Center Alexandria,31.16779581,29.93106319,Withdrawal - Deposit - Currency Exchange
7da82da0-b9fb-4b2a-9ac1-b3965a50b9bc,Alexandria,Moharam Bek,Mobil Gas Station Runway AirPort,31.18774457,29.93818796,Withdrawal - Deposit - Currency Exchange
94b1c62d-703e-4781-a507-a4ec719ad2e1,Alexandria,Moharam Bek,Orange Aliskandarany,31.190614,29.904658,Withdrawal - Deposit - Currency Exchange
a24dd970-12aa-46cc-939f-70f95fbad7b1,Alexandria,North Coast,Stella Walk,30.956641,28.769156,Withdrawal - Deposit - Currency Exchange
0ef509fd-0cdd-4b16-a3df-07ad5c514f51,Alexandria,North Coast,Carrefour - Alorouba Mall,31.00635916,29.63809571,Withdrawal - Deposit - Currency Exchange
9c815775-ef39-4e02-99c1-9aba7062af95,Alexandria,North Coast,Amon North Coast,30.99453118,29.59897575,Withdrawal - Deposit - Currency Exchange
f57bcfa7-6e53-488f-b879-1830c1dd4076,Alexandria,North Coast,Diplomats' Village,30.930344,29.473796,Withdrawal - Deposit - Currency Exchange
6c386c11-7714-42b9-a329-01eae192fbad,Alexandria,Roshdy,Roshdy,31.231924,29.946107,Withdrawal - Deposit - Currency Exchange
0aa4ec7b-badf-452f-ae1c-9dda268dc1b4,Alexandria,Roshdy,Carrefour-Kafr Abdo,31.22493026,29.9491486,Withdrawal - Deposit - Currency Exchange
57ea16a4-7722-4780-92ce-dab5572beed3,Alexandria,Semouha,Semouha,31.21220563,29.9467783,Withdrawal - Deposit - Currency Exchange
777bf6d7-f01d-4a1c-ada3-2121e53f1a06,Alexandria,Semouha,State Council Alexandria Branch 1,31.20832798,29.94845004,Withdrawal - Deposit - Currency Exchange
b3208173-924e-4274-90f9-7a8eea18b24d,Alexandria,Semouha,Spinneys Alexandria,31.21777724,29.95405601,Withdrawal - Deposit - Currency Exchange
2ef547c8-f65f-4ce1-b3b9-a884479b8844,Alexandria,Semouha,Al-Nasr Sports Center - Smouha Branch,31.20777398,29.93505639,Withdrawal - Deposit - Currency Exchange
46f7c83c-d1f8-4bff-9252-0089b2415e0d,Alexandria,Semouha,We Green Plaza Smouha,31.20989396,29.96540157,Withdrawal - Deposit - Currency Exchange
26f69c96-b8b2-46d3-87a4-68a812240348,Alexandria,Semouha,On the run Smouha,31.21288367,29.94960012,Withdrawal - Deposit - Currency Exchange
4be415d9-36cc-4309-b6a7-d8367b4beb45,Alexandria,Sidi Beshr,Alagzakhana Pharmacy - D . Abd Alaziz Ied -Sedy Beshr,31.256472,29.978475,Withdrawal - Deposit - Currency Exchange
92895918-f938-42f3-8ca6-a3b1da641f6d,Alexandria,Sidi Gaber,Sidi Gaber,31.21889042,29.94194917,Withdrawal - Deposit - Currency Exchange
8a478c8f-2789-44f6-87b9-bb8e70042090,Alexandria,Sidi Gaber,Sidi Gaber,31.229429,29.942002,Withdrawal - Deposit - Currency Exchange
67740031-5a13-4625-afcd-8f0d002013e8,Alexandria,Sidi Gaber,Gomla Market Alibrahemia,31.2134636,29.9286509,Withdrawal - Deposit - Currency Exchange
4e7a0b43-b3fa-4edd-ba6a-7a74ac56e137,Alexandria,Sidi Gaber,Aman Sedy Gaber,31.223521,29.93848354,Withdrawal - Deposit - Currency Exchange
d0138c97-fa11-4ff4-a355-9fe14bb9995b,Alexandria,Sidi Gaber,Alexandria train station,31.21900006,29.94234857,Withdrawal - Deposit - Currency Exchange
91ce8202-29ac-44c6-bcbc-4c8f31b6eb5f,Alexandria,Sidi Gaber,Express Almatar,31.205287,29.966553,Withdrawal - Deposit - Currency Exchange
bcad99e0-d980-4d3c-b634-948f5947a1b8,Alexandria,Sidi Gaber,Golden Jewel Hotel Alexandria,31.229429,29.942002,Withdrawal - Deposit - Currency Exchange
23a99e54-dd7d-41d6-840d-21a8647c05a6,Alexandria,Victoria,Victoria,31.24996,29.975313,Withdrawal - Deposit - Currency Exchange
acf5c29a-f39a-431c-8982-c06199492f8d,Alexandria,Victoria,Super Franchise Aliqbal St.,31.24996,29.975313,Withdrawal - Deposit - Currency Exchange
a5b953b4-b427-494f-8b7f-6545ff4540cb,Alexandria,Victoria,Super Franchise Aliqbal St.,31.24996,29.975313,Withdrawal - Deposit - Currency Exchange
f9bccf12-68c4-4679-851d-0f2a1f988233,Assiut,Abanob,Abnoub Central,27.264931,31.148626,Withdrawal - Deposit
4294a3a5-59d0-4e81-801b-e85b319151ae,Assiut,Abou Tig,Abou Tig,27.05310126,31.31595355,Withdrawal - Deposit - Currency Exchange
96169798-2254-41ff-b732-5d2f4b07a970,Assiut,Al Quseyya,Al Quseyya,27.43953532,30.8273281,Withdrawal - Deposit - Currency Exchange
21d7fec0-56a1-453d-8141-efa9251c5433,Assiut,Assiut,Assiut,27.18690223,31.17979978,Withdrawal - Deposit - Currency Exchange
be90d3fe-dc58-4106-be0c-cab157c3a7a1,Assiut,Assiut,Assiut,27.18433966,31.16835757,Withdrawal - Deposit - Currency Exchange
f52274ff-65f8-491f-8e9b-7579197089f0,Assiut,Assiut,Assiut Central Central,27.182268,31.18696,Withdrawal - Deposit
acd70b92-d01e-470f-a6d1-49458f9b7855,Assiut,Assiut,Assiut for Islamic transactions 3,27.186976,31.179728,Withdrawal - Deposit - Currency Exchange
9438d964-0c16-4fb3-90ac-2fd4f455bdbe,Assiut,Assiut Algadida,Assiut Algadida,27.27181631,31.29082245,Withdrawal - Deposit - Currency Exchange
f18c3ec2-9623-4f68-9d22-edd5c051aa0f,Assiut,Dairut,Dairout Branch 6,27.55740089,30.81600975,Withdrawal - Deposit
e19bc63e-87b4-40f5-b3a0-e35332d24378,Assiut,Dairut,Tanmiah Fazara,27.47393499,30.82512873,Withdrawal - Deposit - Currency Exchange
ad95d364-9696-4d44-9c5c-7c408fb09848,Assiut,Dairut,Dayrut Islamic Transactions Branch,27.54771,30.811633,Withdrawal - Deposit - Currency Exchange
e78e7c81-1326-49bd-b436-7faaf381daf2,Assiut,Manfalut,Manfalut,27.20343975,30.99665661,Withdrawal - Deposit - Currency Exchange
5747ac86-7f45-43fe-b3c3-6c11c0b1c1d6,Assiut,Manfalut,Tanmiah manfalout,27.30914,30.968783,Withdrawal - Deposit - Currency Exchange
4bc133ee-8443-4acb-8d5f-9a19db6955f8,Assiut,Manfalut,Manfalut Branch for Islamic Transactions,27.308347,30.966059,Withdrawal - Deposit - Currency Exchange
9f103e91-1e8b-48bc-b5f6-3ad2b8c483cf,Assiut,Sedfa,Sedfa,26.96732163,31.38412036,Withdrawal - Deposit - Currency Exchange
abea7bc1-94fc-4cf3-870f-a406784ebd33,Aswan,Abu Simbel,Abu Simbel,22.34042972,31.61450623,Withdrawal - Deposit - Currency Exchange
a590bf96-8de7-4696-8098-f33388cd0773,Aswan,Abu Simbel,Abu Simbel,22.3376639,31.62333461,Withdrawal - Deposit - Currency Exchange
5344246a-4e3d-40fd-af11-18c9e233d7f9,Aswan,Aswan,Aswan,24.09278849,32.89647103,Withdrawal - Deposit - Currency Exchange
90f964f9-4329-4e14-a8b6-c61dc7dfa91f,Aswan,Aswan,Aswan,24.05730478,32.88279592,Withdrawal - Deposit - Currency Exchange
0fc00391-870c-4880-94fe-14aa718eff29,Aswan,Aswan,Aswan,24.0958139,32.89992016,Withdrawal - Deposit - Currency Exchange
c5f35bfe-4d2b-4568-9e88-dc47ca177e39,Aswan,Aswan,Aswan,24.08512185,32.89151333,Withdrawal - Deposit - Currency Exchange
533b1fa0-063e-4592-b3c7-a16d296c3dbc,Aswan,Aswan,Aswan,24.0628031,32.884378,Withdrawal - Deposit - Currency Exchange
2f69e829-b79c-400f-b58a-36fc820d45be,Aswan,Aswan,State Council Aswan Branch,24.10006523,32.9004554,Withdrawal - Deposit - Currency Exchange
e4004120-ada0-47fa-9c95-31b44b0253a2,Aswan,Aswan,Tanmiah Aswan,24.08753622,32.89647019,Withdrawal - Deposit - Currency Exchange
b857a69a-3cb6-4432-bef1-0b32f1c55bff,Aswan,Aswan,Orange Aswan,24.11695677,32.90096842,Withdrawal - Deposit
b3905b8e-0dcd-420e-9cf9-f57450a457f6,Aswan,Aswan,Tulip Aswan,24.109023,32.901236,Withdrawal - Deposit - Currency Exchange
9b534b18-bb83-4d08-8b6f-2abe5d01ce3c,Aswan,Aswan Algadida,Aswan Algadida,24.18187472,32.85059728,Withdrawal - Deposit - Currency Exchange
9c922a7d-98f0-4c1a-a3da-b13dbb57761f,Aswan,Draow,Tanmiah Almansouria ,24.44736427,32.91654938,Withdrawal - Deposit - Currency Exchange
122e93b8-ab95-4b2e-bb19-279576d338fb,Aswan,Draow,Tanmiah Daraw,24.41175383,32.92724376,Withdrawal - Deposit - Currency Exchange
e4c25fe7-d152-481a-ac9e-7ccb18ac8872,Aswan,Draow,Inspection of the ruins of Kom Ombo,24.466917,32.869146,Withdrawal - Deposit - Currency Exchange
6f7fe78f-9092-4b4c-a908-5202bc385aee,Aswan,Edfu,Edfu,24.97777226,32.87575629,Withdrawal - Deposit - Currency Exchange
44a98b99-5ee5-4a5e-8114-8373f6709354,Aswan,Edfu,Tanmiah Alfouza,24.93281738,32.9027742,Withdrawal - Deposit - Currency Exchange
9d71b447-1ee1-4bc2-bb72-abde05a69fd3,Aswan,Edfu,Tanmiah Idfo,24.9797644,32.87993227,Withdrawal - Deposit - Currency Exchange
55f47f02-e844-4826-a42f-9b0eccaced16,Aswan,Edfu,Tanmiah Alnakhl,24.92676127,32.8580406,Withdrawal - Deposit - Currency Exchange
43bc57e1-b147-4d7f-85e0-500f66aeebb0,Aswan,Edfu,Alradesiah local unit,24.911662,32.882407,Withdrawal - Deposit - Currency Exchange
774e2c0d-f195-4e89-8300-150507c06df1,Aswan,Kom Ombo,Kom Ombo Train Station,24.4780657,32.94722857,Withdrawal - Deposit
6de1dd59-57f0-491b-bb64-503e552bb669,Aswan,Kom Ombo,Educational Administration Kom Ombo,24.47525,32.942907,Withdrawal - Deposit - Currency Exchange
fd19bb02-cfd6-46ec-b74f-b92932e67eaf,Aswan,Nasr El Noba,Tanmiah Alnouba,24.54158392,33.035257,Withdrawal - Deposit - Currency Exchange
c3911232-8b0b-4661-a4ad-b4d554013a51,Aswan,Nasr El Noba,Branches Nasr Alnouba 2,24.541593,33.034906,Withdrawal - Deposit - Currency Exchange
62219f54-4b6a-43bc-adfc-5101f3557302,Beni Suef,Ahnasia,Tanmiah Ahnasia City (Barawa),29.0244,30.905135,Withdrawal - Deposit - Currency Exchange
55d34259-9832-4179-90ad-bd713ec158a4,Beni Suef,Al Fashn,Delhanes Village Local Unit,28.814798,30.813137,Withdrawal - Deposit - Currency Exchange
d21a3797-30bd-4456-9fbe-259a51c10570,Beni Suef,Al Wasta,Al Wasta,29.34302165,31.20863056,Withdrawal - Deposit - Currency Exchange
646badbb-de98-4e8b-b5ee-8487979af6e7,Beni Suef,Al Wasta,Al Wasta Central Hospital,29.35714367,31.20255485,Withdrawal - Deposit - Currency Exchange
93894b2e-39bc-4edb-b00f-af4e3c057372,Beni Suef,Al Wasta,The local unit in the village of Meidum,29.37069224,31.17482108,Withdrawal - Deposit - Currency Exchange
ce257108-93d7-4a95-a185-91bf9f46a689,Beni Suef,Al Wasta,Alarabi Company Beni Suef,29.346083,31.111183,Withdrawal - Deposit - Currency Exchange
a34e8bd7-1528-439a-ab43-f902ec16e0da,Beni Suef,Al Wasta,Bani Hadir School Complex in Wasta,29.2577987,31.1950593,Withdrawal - Deposit
66934b15-a78c-4751-8fd7-32e38cc81c06,Beni Suef,Al Wasta,Saft Al Sharqiah Primary School in Wasta,29.3974957,31.1825006,Withdrawal - Deposit
25326f8c-bbc2-472b-88d8-ab7281be9b93,Beni Suef,Al Wasta,Modern School 2 Elementary Common,29.3384801,31.205868,Withdrawal - Deposit
d51437dd-b525-4132-968e-f28444f7f6a0,Beni Suef,Al Wasta,Al Wasta Educational Administration,29.34355307,31.20825434,Withdrawal - Deposit
e803f5c0-ad8f-44bf-8c45-ce505f9b73d1,Beni Suef,Bani Suef,Bani Suef,29.07523209,31.09924149,Withdrawal - Deposit - Currency Exchange
7c2d7b67-4a2f-4f28-a9ae-4d80d6e28ac6,Beni Suef,Bani Suef,Bani Suef,29.346083,31.111183,Withdrawal - Deposit - Currency Exchange
14955aee-f811-4bcc-b2c2-3f6d408e998f,Beni Suef,Bani Suef,State Council Beni Suef branch,29.07295458,31.11286507,Withdrawal - Deposit - Currency Exchange
b695b984-6ca8-4e2f-8074-29a1683ad4bd,Beni Suef,Bani Suef,Al-Nasr Sports Center - Beni Suef Branch,29.07307401,31.09777519,Withdrawal - Deposit
961aba87-993d-4247-bbc4-175446bd102a,Beni Suef,Bani Suef,Tamwely Beni Suef,29.07617935,31.10210917,Withdrawal - Deposit
30090b24-d26a-4a2a-ba40-f8b2e58d395b,Beni Suef,Bani Suef,Raneen Beni Suef,29.06228688,31.09180597,Withdrawal - Deposit
dd5009cb-88dc-473e-b397-7b245630fb8b,Beni Suef,Bani Suef,Agricultural Secondary School - BPA,28.92611349,30.97192963,Withdrawal - Deposit
b9bfed10-f324-40b5-9355-51b456bf4abf,Beni Suef,Bani Suef,IBAG-Beni Suef,29.080805,31.103094,Withdrawal - Deposit - Currency Exchange
214622b4-fa84-4dff-91fd-9b9a51e9fe7b,Beni Suef,Bani Suef,Beni Suef Mills,29.086179,31.104869,Withdrawal - Deposit - Currency Exchange
8c75ec70-1781-46ff-bd40-aebac3fb76b1,Beni Suef,Bani Suef elgadida,Bani Suef elgadida,29.03752604,31.11637966,Withdrawal - Deposit - Currency Exchange
a02b545b-645c-4880-bcee-50d192033a96,Beni Suef,Beba,Beba,28.92304052,30.98342153,Withdrawal - Deposit - Currency Exchange
02b75592-64c4-41a5-a44d-f4972eb3780a,Beni Suef,Beba,Martyr Abdel Moneim Riyad School,28.92750875,30.98734427,Withdrawal - Deposit - Currency Exchange
a41fa870-e818-4586-954a-042a3b304d48,Beni Suef,Beba,Secondary Technical School - BBA,28.9267708,30.9842036,Withdrawal - Deposit - Currency Exchange
4f4a41a3-add1-40ee-81f6-0c56bf88958d,Beni Suef,Nasser,Shinawiyah Girls Institute,29.15368177,31.12379545,Withdrawal - Deposit - Currency Exchange
993bb4d4-2d97-431a-a7d7-94907585b0e4,Beni Suef,Nasser,The local unit in the village of Bani Uday,29.2001896,31.16251954,Withdrawal - Deposit - Currency Exchange
89311ed6-aab1-4a8b-81e5-5a9084fe7d7b,Beni Suef,Nasser,Shinawiyah Girls Institute,29.15368177,31.12379545,Withdrawal - Deposit - Currency Exchange
c6740f05-b0c1-473e-b5e2-e77faa1591c6,Beni Suef,Nasser,The local unit in the village of Bani Uday,29.2001896,31.16251954,Withdrawal - Deposit - Currency Exchange
c7452880-18cb-4619-ac2a-0785c400b3b7,Beni Suef,Nasser,Shinawiyah Girls Institute,29.15368177,31.12379545,Withdrawal - Deposit - Currency Exchange
3b1cfcf3-c3bd-4c71-a68a-642599a18466,Beni Suef,Nasser,Tansa Preparatory School,29.2100632,31.1103788,Withdrawal - Deposit
dd001f86-000c-4df2-85f9-eb93f2810765,Cairo,15th of May City,15th of May City,29.82874569,31.36742056,Withdrawal - Deposit - Currency Exchange
a75d703b-ce76-44ec-a104-686e829a9a4d,Cairo,15th of May City,Carrefour-15 May,29.82733789,31.36639024,Withdrawal - Deposit - Currency Exchange
1939bb15-581e-4cb6-9adb-34513f732a56,Cairo,15th of May City,Taqa Station 15 may,29.83380572,31.35630875,Withdrawal - Deposit - Currency Exchange
776c53c6-ad83-4fe4-a8d0-6987085f68a9,Cairo,15th of May City,Watania Wady Houf,29.90343934,31.30950563,Withdrawal - Deposit - Currency Exchange
eb347988-cf7a-4a24-8395-1232159d49d4,Cairo,Abbassia,Egypt Tourism Tower,30.07216576,31.2855653,Withdrawal - Deposit - Currency Exchange
3528eb09-8ceb-4f02-8df4-2067034b684b,Cairo,Abbassia,Abbassia,30.06172467,31.27192604,Withdrawal - Deposit - Currency Exchange
5b5c2ea0-e9a6-4901-a9b3-41bb1a1c0e5c,Cairo,Abbassia,Abbassia,30.06484,31.279304,Withdrawal - Deposit - Currency Exchange
80905cba-2a37-4be3-8206-2043d81dd5a2,Cairo,Abbassia,Abbassia,30.073859,31.293938,Withdrawal - Deposit - Currency Exchange
47db1dab-7fe9-482e-bcc7-2cd8e0a10b90,Cairo,Abbassia,Abbassia,30.071591,31.288335,Withdrawal - Deposit - Currency Exchange
9f1e33e2-1ec2-4199-ace0-f456483f6d3f,Cairo,Abbassia,Abbassia,30.066363,31.285149,Withdrawal - Deposit - Currency Exchange
6220263a-c9d5-4fbd-a236-87a87d1a3f90,Cairo,Abbassia, Abassia Passports Department,30.066363,31.285149,Withdrawal - Deposit - Currency Exchange
83e9e3ee-23b9-458e-b58d-71ca841cd90b,Cairo,Abbassia,Abasiea Metro Station,30.072012,31.283329,Withdrawal - Deposit - Currency Exchange
8faa394e-b07e-43f2-865e-68b7d4d03aac,Cairo,Abbassia,Abdo Basha Metro Station,30.064883,31.274777,Withdrawal - Deposit - Currency Exchange
c4c51368-34d1-4489-9c13-1a9deda49192,Cairo,Abdeen,Abdeen,30.04554443,31.23715823,Withdrawal - Deposit - Currency Exchange
a5e4d8d1-210b-4cc4-a858-b638ac3ac9ec,Cairo,Abdeen,Abdeen,30.05045378,31.24631628,Withdrawal - Deposit - Currency Exchange
984673d0-9a01-4304-9b73-bcd150538cf9,Cairo,Abdeen,Abdeen,30.05142332,31.24243018,Withdrawal - Deposit - Currency Exchange
9c9000ed-746d-47a5-a823-7d642937b2e3,Cairo,Abdeen,Abdeen,30.04942378,31.24535224,Withdrawal - Deposit - Currency Exchange
09411bd0-d94d-4648-a838-7b70fde9b39e,Cairo,Abdeen,Abdeen,30.04005018,31.2367296,Withdrawal - Deposit - Currency Exchange
f847a29e-03f2-4156-8d65-21932d7be8ab,Cairo,Abdeen,Abdeen,30.04806333,31.24416693,Withdrawal - Deposit - Currency Exchange
aaf52c15-bbc7-420b-b914-789407827119,Cairo,Abdeen,Central Administration of Laboratories,30.041675,31.238477,Withdrawal - Deposit - Currency Exchange
74d9f8ca-146e-4462-9c73-2f5551789dd8,Cairo,Abdeen,Sherif Branch,30.051415,31.24243,Withdrawal - Deposit - Currency Exchange
132a93f8-51b8-419d-8367-e3464774fc5b,Cairo,Ain Shams,Ain Shams,30.125515,31.349041,Withdrawal - Deposit - Currency Exchange
59037678-fd6b-4c4e-942b-0564bab0e83a,Cairo,Ain Shams,Ain Shams,30.123735,31.326028,Withdrawal - Deposit - Currency Exchange
74501841-968f-4b44-a024-8a71d95972e3,Cairo,Ain Shams,Almataria  Engineering College,30.123735,31.326028,Withdrawal - Deposit - Currency Exchange
ef04b813-6134-4b11-8238-6add0925cefd,Cairo,Ain Shams,Shams Club Metro Station,30.1255147,31.34904119,Withdrawal - Deposit - Currency Exchange
037e0fae-cf61-4045-b83f-be84e5cf441b,Cairo,Ain Shams,Ranin Alshams Club,30.12788916,31.34911409,Withdrawal - Deposit - Currency Exchange
b93c4681-b09a-4f7f-b6d9-be3b1774dc48,Cairo,Ain Shams,Faculty of Dentistry - Ain Shams University,30.073859,31.293938,Withdrawal - Deposit - Currency Exchange
dd4662e2-83ca-44da-93b7-07c01de7b3bb,Cairo,Ain Shams,Healthy & Tasty Ahmed Esmat Ain Shams,30.125779,31.332679,Withdrawal - Deposit - Currency Exchange
ea0192d9-40d0-4d43-b5c0-7209a150131b,Cairo,Al Maadi,Al Maadi,29.95796139,31.25869566,Withdrawal - Deposit - Currency Exchange
b735d87e-1b04-44d4-8b7d-da7b7726ad75,Cairo,Al Maadi,Al Maadi,29.96107506,31.24753716,Withdrawal - Deposit - Currency Exchange
27509c6c-7726-4aee-a979-426d15203c84,Cairo,Al Maadi,Al Maadi,29.95686042,31.26088545,Withdrawal - Deposit - Currency Exchange
103d5b9b-7b68-46e3-94dc-cfd3b1547944,Cairo,Al Maadi,Al Maadi,29.977781,31.28472238,Withdrawal - Deposit - Currency Exchange
489dadf1-7efc-4ee9-abc8-a2d8520ef9d0,Cairo,Al Maadi,Al Maadi,29.97608444,31.23443557,Withdrawal - Deposit - Currency Exchange
b5427e58-b175-4588-b884-0c9cfb1127dc,Cairo,Al Maadi,Al Maadi,29.95880352,31.25949339,Withdrawal - Deposit - Currency Exchange
9155d850-7a88-4ccb-bd60-ae6166363e8d,Cairo,Al Maadi,Al Maadi,29.953772,31.267502,Withdrawal - Deposit - Currency Exchange
e84435fd-d9ea-4c17-914d-bfd1dc66187d,Cairo,Al Maadi,Gezeret Almaadi,29.96499152,31.2389503,Withdrawal - Deposit - Currency Exchange
b6f75306-c2b4-4aec-ae2a-f3eaecebc9c8,Cairo,Al Maadi,Carrefour- New Maadi,29.98246694,31.27423415,Withdrawal - Deposit - Currency Exchange
f9bf8406-e1f8-4650-9ac4-4892f84d3f71,Cairo,Al Maadi,Watania Almaadi,29.96791799,31.28742034,Withdrawal - Deposit - Currency Exchange
3d905c4d-48dd-4ddf-bac3-9005664be9a3,Cairo,Al Maadi,Seif El Zahraa Pharmacy - Zahraa El Maadi,29.96056736,31.28963342,Withdrawal - Deposit - Currency Exchange
55e37e05-9c22-470f-8128-af6edaff21ec,Cairo,Al Moski,Al Moski,30.05112925,31.25004762,Withdrawal - Deposit - Currency Exchange
a7f58595-c8ee-4dc4-82a0-c81f24538e40,Cairo,Al Qatameya,Al Qatameya,29.995565,31.405084,Withdrawal - Deposit - Currency Exchange
04f317c3-c455-4210-ad66-028de8cded4a,Cairo,Al Qatameya,Al Qatameya,30.016703,31.41206,Withdrawal - Deposit - Currency Exchange
5332be99-6bf6-4207-b477-8c4fbd5a7b6e,Cairo,Al Qatameya,Nuclear Materials Authority,29.971479,31.399367,Withdrawal - Deposit - Currency Exchange
2e3a7391-4272-4578-8391-7a08af45ed7a,Cairo,Al Qatameya,Alqatamia Highiets,29.995565,31.405084,Withdrawal - Deposit - Currency Exchange
7e6fce30-1d79-4fe4-919b-4a8bb559e891,Cairo,Al Salam City,Al Salam City,30.16820294,31.4104506,Withdrawal - Deposit - Currency Exchange
2c9f3350-58e8-405d-83fc-193edc181757,Cairo,Al Salam City,Qebaa Metro Station,30.134823,31.383991,Withdrawal - Deposit - Currency Exchange
08b0eaa9-310c-4f2f-87e5-856182582abc,Cairo,Al Salam City,Sun City Al Nahda Branch 2,30.157614,31.408182,Withdrawal - Deposit - Currency Exchange
90862aba-9571-4410-aef0-7fd7f5803f9e,Cairo,Al Salam City,Etisalat Alhoda - Alarbien,30.136217,31.362583,Withdrawal - Deposit - Currency Exchange
63ac5acd-5bb8-4616-91cb-d7fae0195141,Cairo,Al Shorouk City,Watania Almostaqbal,30.16440044,31.56288424,Withdrawal - Deposit - Currency Exchange
efbbcdd1-1bbe-421f-aa03-b837e5c1b336,Cairo,Al Shorouk City,Cairo Recruitment and Mobilization Area,30.1592581,31.4709688,Withdrawal - Deposit - Currency Exchange
68f55351-d6f4-4e3a-a87a-8794b0aab3bc,Cairo,Al Shorouk City,City Mall Shorouk,30.11455988,31.60703108,Withdrawal - Deposit - Currency Exchange
18d38be2-774d-465c-918f-c06614f75962,Cairo,Al Shorouk City,Future Mall El Shorouk,30.16437189,31.65150509,Withdrawal - Deposit - Currency Exchange
7b8a6268-d2f6-49c9-81c5-f9557e6a1e8a,Cairo,Al Shorouk City,Paradise Mall Shorouk,30.15653586,31.65851567,Withdrawal - Deposit - Currency Exchange
9aacc740-4074-41ad-9224-89c355b29955,Cairo,Al Shorouk City,Renesas International School,30.15118973,31.6115737,Withdrawal - Deposit - Currency Exchange
1f43847a-d7cd-4cfc-bf87-3e87ecc2fcc6,Cairo,Al Shorouk City,Algamaa Mall,30.14727735,31.60715008,Withdrawal - Deposit - Currency Exchange
eb281cc2-776b-4e98-9a6c-cf1c24060af8,Cairo,Al-Darasah,Al-Darasah,30.04690266,31.26772253,Withdrawal - Deposit - Currency Exchange
5c3d69a2-f3b5-4a3d-828d-56195e82b7e9,Cairo,Al-Darasah,Al-Darasah,30.052786,31.273161,Withdrawal - Deposit - Currency Exchange
85a2e914-8f19-4d7e-8de4-1a787755a776,Cairo,Alkhalifa,Alkhalifa,30.03636734,31.25181183,Withdrawal - Deposit - Currency Exchange
386148ff-56d3-411b-bff4-1613a84a2305,Cairo,Almazah,Almazah,30.081714,31.364977,Withdrawal - Deposit - Currency Exchange
4e30455a-47bb-487f-bff7-8ab71a5770ff,Cairo,Almazah,Almazah,30.08344846,31.37962425,Withdrawal - Deposit - Currency Exchange
dda187c1-0bd5-4979-8a77-f0045b6edb7b,Cairo,Almazah,Almazah,30.083413,31.380215,Withdrawal - Deposit - Currency Exchange
dc4d5fdf-0555-4841-88a0-d394d76e8614,Cairo,Almazah,City Center Almaza,30.081714,31.364977,Withdrawal - Deposit - Currency Exchange
a02f6721-d6a8-4cb3-8091-5e928257b180,Cairo,Almirag City,Almirag City,29.983552,31.316266,Withdrawal - Deposit - Currency Exchange
864f0c3a-0f2e-46ba-aefc-8e81e52208c9,Cairo,Almirag City,Watania Hub 50,29.96814789,31.31307927,Withdrawal - Deposit - Currency Exchange
cd723e77-31bd-4402-98e3-e40c50f0dd40,Cairo,Al-Mokattam,Al-Mokattam,30.01617357,31.28147871,Withdrawal - Deposit - Currency Exchange
52dab3e2-1237-4bac-b1fe-fd4155112833,Cairo,Al-Mokattam,Al-Mokattam,30.01395041,31.32274964,Withdrawal - Deposit - Currency Exchange
d852e804-10a0-40f3-9e04-7992f0fb7f34,Cairo,Al-Mokattam,Carrefour -Mega Mall,29.97907231,31.43405756,Withdrawal - Deposit - Currency Exchange
d7273753-169f-4b13-9cde-29a88b8dccd3,Cairo,Al-Mokattam,Carrefour-Degla,29.95983772,31.27812168,Withdrawal - Deposit - Currency Exchange
5d14c8da-a2e4-4c14-9327-300c653fda61,Cairo,Al-Mokattam,Carrefour-Almoqatam,30.01690353,31.28169478,Withdrawal - Deposit - Currency Exchange
45bd7309-ae3d-4517-92b6-115d1844acb4,Cairo,Al-Mokattam,Carrefour-Albaroun Mall,29.98320796,31.3394141,Withdrawal - Deposit - Currency Exchange
379415d8-587b-4e4f-a8c3-2d2a2311e1bf,Cairo,Al-Mokattam,Carrefour -Alasmarat District,30.00938077,31.34021122,Withdrawal - Deposit - Currency Exchange
4b3cc118-2db2-47e9-a123-42faa40eeb4f,Cairo,Al-Mokattam,We Almoqatam Zelzal housing,30.01099329,31.33433198,Withdrawal - Deposit - Currency Exchange
fa7cf338-0432-4ec3-a0c0-45ef287cac39,Cairo,Al-Mokattam,Watania Ring Road Almoqatam,29.98689544,31.30994852,Withdrawal - Deposit - Currency Exchange
7f7172a9-7797-4f7a-a4fd-938f2f82d397,Cairo,Al-Mokattam,Carrefour- Uptown Cairo Iemar,30.01860058,31.29866668,Withdrawal - Deposit - Currency Exchange
7160a160-f1b2-45f7-9e0a-6b30fe314db0,Cairo,Al-Mokattam,Al Hadaba Al Wsta power station,29.99483753,31.32127283,Withdrawal - Deposit - Currency Exchange
cdc7928a-17c7-4108-861d-1fca43b2b273,Cairo,Al-Mokattam,9 Mokattam Street Branch,30.01395,31.32275,Withdrawal - Deposit - Currency Exchange
85ecb780-9b1d-431c-9e14-95259fe8dc56,Cairo,Alnozhah,Alnozhah,30.108902,31.388265,Withdrawal - Deposit - Currency Exchange
f0395573-2ea4-4e5b-be7a-b43dc74dd8d6,Cairo,Alnozhah,Alnozhah,30.10880038,31.35015039,Withdrawal - Deposit - Currency Exchange
f82c9d30-54df-4b14-9794-f46b815b7d7c,Cairo,Alnozhah,Alnozhah,30.10393475,31.34402787,Withdrawal - Deposit - Currency Exchange
c90a016a-c593-4cd5-a5f0-36041a399f2d,Cairo,Alnozhah,Alnozhah,30.12853,31.403166,Withdrawal - Deposit - Currency Exchange
7da5a07e-d119-4559-a568-bfd976af586c,Cairo,Alnozhah,Alnozhah,30.115871,31.393739,Withdrawal - Deposit - Currency Exchange
e94ed7e3-3b45-486c-b1a0-f45d81645c22,Cairo,Alnozhah,Alnozhah,30.118375,31.402733,Withdrawal - Deposit - Currency Exchange
6693175c-5d03-43ef-8261-d2394f8c7952,Cairo,Alnozhah,Alnozhah,30.124286,31.348019,Withdrawal - Deposit - Currency Exchange
4717c868-79f7-45a9-b6dd-3541d2ab548e,Cairo,Alnozhah,Alnozhah,30.121441,31.401813,Withdrawal - Deposit - Currency Exchange
02e4ef8f-e073-4d83-b504-8a5f9f4c7d0c,Cairo,Alnozhah,Alnozhah,30.127807,31.360578,Withdrawal - Deposit - Currency Exchange
94af4fc2-c221-471a-b982-eba91fcbe331,Cairo,Alnozhah,Alnozhah,30.147615,31.420499,Withdrawal - Deposit - Currency Exchange
04105e98-b642-42ca-8882-2dbc00397907,Cairo,Alnozhah,Alnozhah,30.113699,31.395402,Withdrawal - Deposit - Currency Exchange
3f599bb8-6465-431c-ad58-0c0659d6c7f2,Cairo,Alnozhah,Alnozhah,30.118077,31.403339,Withdrawal - Deposit - Currency Exchange
8b2fe845-9c82-4bad-aa94-ee148874cc70,Cairo,Alnozhah,Watania Josiph Tito,30.13874537,31.42411586,Withdrawal - Deposit - Currency Exchange
cf13a92f-e6a7-4071-83c1-9b62d2d690c4,Cairo,Alnozhah,Watania Ahmed Galal,30.13517242,31.45545942,Withdrawal - Deposit - Currency Exchange
38099570-c060-4a57-ad39-c6889d76d3cb,Cairo,Alnozhah,Etisalat Al Huda - Gesr Al Suez,30.10942126,31.32843189,Withdrawal - Deposit - Currency Exchange
440673b2-67ea-422b-8844-7858a9d24fbb,Cairo,Alnozhah,National Service Projects Organization - Joseph Tito 2,30.13724157,31.42623427,Withdrawal - Deposit - Currency Exchange
e9339d30-40dd-4564-ba83-135aeceb2682,Cairo,Alnozhah,Ragab Sons Market - Hegaz,30.11288781,31.34857865,Withdrawal - Deposit - Currency Exchange
4590e3ca-968d-4fe1-a99f-fcf85abea96d,Cairo,Alnozhah,Watania Alshazly,30.138907,31.464961,Withdrawal - Deposit - Currency Exchange
0a674ce0-99b0-4741-9f92-702c92652c18,Cairo,Alnozhah,Novell Hotel,30.121441,31.401813,Withdrawal - Deposit - Currency Exchange
2a0817aa-2304-4a0c-b220-78ad1b3c6e26,Cairo,Alnozhah,Egyptian Company for Airports,30.119142,31.389656,Withdrawal - Deposit - Currency Exchange
87b18596-3803-4855-9dc9-31c659dbbde0,Cairo,Alnozhah,Adly Mansour Metro Station,30.147615,31.420499,Withdrawal - Deposit - Currency Exchange
d4158204-7db9-4784-ad7c-778671ebdb56,Cairo,Alnozhah,Biet Alsalam Gallery,30.139667,31.393166,Withdrawal - Deposit - Currency Exchange
7b5a502b-7803-42c8-ba2a-64fa5992d21f,Cairo,Alnozhah,Mobil Gesr El Suez - Hykestep,30.142973,31.404258,Withdrawal - Deposit - Currency Exchange
d9868238-791e-44c5-ae76-c74be744fddf,Cairo,Alsahel,Alsahel,30.08077305,31.24499771,Withdrawal - Deposit - Currency Exchange
f63d4067-6332-4504-8ac4-0a37cf2036ae,Cairo,Alsahel,Alsahel,30.090978,31.251324,Withdrawal - Deposit - Currency Exchange
d75a42ad-7e78-464d-8510-f0a7c8a071e6,Cairo,Alsahel,Alsahel,30.10255142,31.2436953,Withdrawal - Deposit - Currency Exchange
e7cc87f7-62e4-4895-9546-e500c347cb43,Cairo,Alsahel,Alamir Mall 2,30.07954071,31.24805744,Withdrawal - Deposit - Currency Exchange
cd589c34-e028-438a-82f5-7f2ed2279732,Cairo,Alsahel,Cairo Pharmaceutical Company 1,30.09097792,31.25132374,Withdrawal - Deposit - Currency Exchange
3e82d702-97e3-4bcf-bf8c-bfeab3bec669,Cairo,Alsahel,Mobile Cross of Shobra And Alwarsha St.,30.086346,31.245586,Withdrawal - Deposit - Currency Exchange
d9e30405-3583-486d-8984-17d70cdc4f28,Cairo,Al-Sayeda Zeinab,Al-Sayeda Zeinab,30.03775884,31.24960743,Withdrawal - Deposit - Currency Exchange
d4c53c84-f7ec-4184-87d6-2be88b975c91,Cairo,Al-Sayeda Zeinab,Al-Sayeda Zeinab,30.03473547,31.23893093,Withdrawal - Deposit - Currency Exchange
ab962838-bedf-4fbb-8c7b-ba80bb2ca866,Cairo,Al-Sayeda Zeinab,We Alsaida Zainab,30.03299652,31.24596139,Withdrawal - Deposit - Currency Exchange
f27d9b0f-ee53-4979-b8f6-2f2f73c341fa,Cairo,Al-Sayeda Zeinab,Council of Ministers External,30.039688,31.236232,Withdrawal - Deposit - Currency Exchange
c84c21ca-6e4d-433f-84c0-78c665a1c05f,Cairo,Al-Sayeda Zeinab,Bab El Louk 2,30.034731,31.236695,Withdrawal - Deposit - Currency Exchange
5d96b50e-5d9c-43b8-8f81-a885fd6edf1a,Cairo,Alshrabia,Alshrabia,30.06893,31.264372,Withdrawal - Deposit - Currency Exchange
254618db-c1fc-4802-bd0b-be9e12a6433d,Cairo,Alshrabia,ghamra Metro Station,30.06893,31.264372,Withdrawal - Deposit - Currency Exchange
a4dadc96-4850-4ce7-9654-9f096fe24840,Cairo,Alwaily, State Council building OF  Abbasia,30.07183707,31.28668859,Withdrawal - Deposit - Currency Exchange
47244a87-f4d9-4a46-b9c2-78b5b6fdfa4d,Cairo,Alwaily,Language Institute of the Armed Forces,30.08070574,31.29952154,Withdrawal - Deposit - Currency Exchange
bdd5905d-604e-42f0-919f-dd35f56c99c9,Cairo,Alwaily,Ministry of Defense - headquarters of the General Secretariat,30.0819496,31.29314698,Withdrawal - Deposit - Currency Exchange
0a1ed2f8-8b96-4002-9008-8ef92f4b1b52,Cairo,Alwaily,Ain Shams University 3 (the square between the old and new Faculty of Science buildings),30.07851404,31.28506579,Withdrawal - Deposit - Currency Exchange
1b44cf16-7709-4c73-b798-1171d174d6e1,Cairo,Alwaily,Ain Shams University 4 (rear entrance to the Faculty of Archeology),30.07757232,31.28171457,Withdrawal - Deposit - Currency Exchange
f68b6529-22c8-4c00-8adb-95840cc64f20,Cairo,Alwaily,Ain Shams University 2 (the square between the Faculty of Science and the Faculty of Computers),30.07779551,31.28486159,Withdrawal - Deposit - Currency Exchange
fcd9e0e5-36e2-4715-90a7-a75863a35e51,Cairo,Alwaily,Ain Shams University 1 (the square between the rights building and the old amphitheater),30.07759183,31.28635828,Withdrawal - Deposit - Currency Exchange
a06b69dd-d1cc-46b6-937d-7e374dbd6227,Cairo,Alwaily,Ain Shams University 5 (the square between the Faculty of Arts and the Faculty of Law),30.077141,31.287004,Withdrawal - Deposit - Currency Exchange
545ea33a-5435-4eff-8f67-43fdd01acbab,Cairo,Alzaher,Carrefour-Alazhar,30.0463229,31.25404872,Withdrawal - Deposit - Currency Exchange
d2c9e578-3634-458f-a2c1-10911b75ec6c,Cairo,Alzawya Elhamra,Al-Agzakhana Pharmacy - Dr. Ahmed Saber,30.094538,31.270575,Withdrawal - Deposit - Currency Exchange
aea2d7b4-9ba8-41b7-baa8-895c3fb62662,Cairo,Bab elsharya,Algish Metro Station,30.061766,31.266902,Withdrawal - Deposit - Currency Exchange
064f15a6-a7af-458d-ae3f-0cdaf32202e2,Cairo,Badr City,Orang Badr City,30.1372964,31.71804576,Withdrawal - Deposit - Currency Exchange
0155bb1f-9e03-4851-8204-8b5f6c789534,Cairo,Bolak,Arkadia Mall,30.06980482,31.22726416,Withdrawal - Deposit - Currency Exchange
b3a2ad5b-977b-4429-98e9-2510220054ad,Cairo,Bolak,Hilton Suites World Trade Center,30.063852,31.227839,Withdrawal - Deposit - Currency Exchange
3041d151-d529-41c7-a0bc-9945288d9cd5,Cairo,Bolak,  Nile City Mall,30.071681,31.227419,Withdrawal - Deposit - Currency Exchange
471baa4d-66c9-41c6-98b5-32b74b61e8d1,Cairo,Bolak,Bolak,30.06124105,31.22764583,Withdrawal - Deposit - Currency Exchange
a9e4eef3-6e40-4e8d-82b2-6794fdc76371,Cairo,Bolak,Bolak,30.071783,31.227447,Withdrawal - Deposit - Currency Exchange
2b929623-ffa5-41db-99c7-f30560c5f496,Cairo,Bolak,Bolak,30.063852,31.227839,Withdrawal - Deposit - Currency Exchange
808f8ec4-391a-4085-8e23-bcb6acd0b32e,Cairo,Bolak,Ramses Hilton ,30.0503263,31.232182,Withdrawal - Deposit - Currency Exchange
24b3b132-b0f3-49f5-a61f-f4460570d6b7,Cairo,Dar El Salam,We Dar Alsalam,29.98464498,31.24304176,Withdrawal - Deposit - Currency Exchange
88df703b-ad8d-47a4-8df0-b0aff5ad4967,Cairo,Downtown,Ramses branch 4,30.06062308,31.24591822,Withdrawal - Deposit
8deab95e-f9b5-4852-8b20-deff0a23c6a4,Cairo,Downtown,Altawfeqia 3,30.05341307,31.24217343,Withdrawal - Deposit
ed192f61-54db-4755-8b3a-b0579689fba1,Cairo,Downtown,Downtown,30.0378012,31.23340975,Withdrawal - Deposit - Currency Exchange
6d62a5a9-9bc9-4287-8981-c0eb8e142e2b,Cairo,Downtown,Downtown,30.0532188,31.23944466,Withdrawal - Deposit - Currency Exchange
bbbdf572-834c-4809-b434-e5ffd844428c,Cairo,Downtown,Downtown,30.047943,31.233991,Withdrawal - Deposit - Currency Exchange
7e9e7f7b-b929-4722-8957-100b39a6f803,Cairo,Downtown,Downtown,30.04448732,31.23330873,Withdrawal - Deposit - Currency Exchange
0be6fa95-f909-4124-91d7-5564749c40ae,Cairo,Downtown,Downtown,30.046025,31.231895,Withdrawal - Deposit - Currency Exchange
34057adf-9816-4562-b3ac-27f2188b6ab6,Cairo,Downtown,Downtown,30.042443,31.232386,Withdrawal - Deposit - Currency Exchange
7771cd56-398c-4268-9c45-472dafaf644c,Cairo,Downtown,Downtown,30.04149503,31.23542674,Withdrawal - Deposit - Currency Exchange
b64a97b2-2339-4dd4-bfed-b6a4d573d0d2,Cairo,Downtown,Downtown,30.038724,31.230295,Withdrawal - Deposit - Currency Exchange
0a5f81a2-2bd9-43e7-9104-478891c40cb7,Cairo,Downtown,Downtown,30.044179,31.234499,Withdrawal - Deposit - Currency Exchange
f39559f7-d0b0-47bd-ad61-32ce7d981b98,Cairo,Downtown,Downtown,30.056994,31.242312,Withdrawal - Deposit - Currency Exchange
a8bc80ed-1bf8-4393-b369-6ef034304aa9,Cairo,Downtown,Downtown,30.062773,31.246209,Withdrawal - Deposit - Currency Exchange
c0615fc3-7f3b-422d-b2e5-bdb81c086025,Cairo,Downtown,Downtown,30.04684341,31.23776411,Withdrawal - Deposit - Currency Exchange
7c6c0a76-de41-466f-b43f-4f7260ee7ae6,Cairo,Downtown,Downtown,30.03220063,31.23208748,Withdrawal - Deposit - Currency Exchange
56b05a23-0c78-4d0c-83e2-a5907b7bd3a9,Cairo,Downtown,Gamiet Aldewal Alarabia,30.044487,31.233309,Withdrawal - Deposit - Currency Exchange
3cff93d5-f9d3-435b-87d9-e8b743670a35,Cairo,Downtown,The Egyptian Museum 1,30.04794302,31.23399088,Withdrawal - Deposit - Currency Exchange
7b061aaf-120c-423b-929d-50adaf7d2c76,Cairo,Downtown,Orabi Metro Station,30.056994,31.242312,Withdrawal - Deposit - Currency Exchange
126cd10d-8e12-47a2-85ca-12243a2dd1aa,Cairo,Downtown,Sadat Metro Station,30.044179,31.234499,Withdrawal - Deposit - Currency Exchange
d4cf6d14-af1c-492d-8603-0efad7b81959,Cairo,Downtown,Semiramis Hotel,30.042443,31.232386,Withdrawal - Deposit - Currency Exchange
8caca160-f4d5-41a6-8262-8d90dde04f43,Cairo,Downtown,Alfi Insurances,30.054071,31.246022,Withdrawal - Deposit - Currency Exchange
8e15f688-a131-4f76-a870-fa4c7d66ace3,Cairo,Downtown,Ramses train station,30.062773,31.246209,Withdrawal - Deposit - Currency Exchange
faa7bb6b-7dd8-4f74-8e01-5a406c8366af,Cairo,El marg,Halal Market Almarg Alqadima,30.148373,31.342198,Withdrawal - Deposit - Currency Exchange
7bacc6dd-4b8c-47ab-abaf-59db1b12240f,Cairo,El marg,Seif Me'raj Pharmacies,29.98227607,31.3119892,Withdrawal - Deposit - Currency Exchange
718f9ef2-2eb7-4014-a4a4-38a1e645eba0,Cairo,El marg,Etisalat Alhoda - Almarg,30.151248,31.341824,Withdrawal - Deposit - Currency Exchange
94aaf37f-95a0-4d08-86e8-21cb146b27b8,Cairo,El marg,Shaheen Center Marg,30.141419,31.331208,Withdrawal - Deposit - Currency Exchange
423a32ce-e499-42e4-935b-fac845dced0b,Cairo,EL Rehab,EL Rehab,30.05888665,31.49229828,Withdrawal - Deposit - Currency Exchange
60a25946-5d8f-478a-8c87-2cf27d1584ec,Cairo,EL Rehab,Avenue Mall Al Rehab,30.05754456,31.50864427,Withdrawal - Deposit - Currency Exchange
94dd7887-59d9-4413-ab68-dddddb2a7e93,Cairo,EL Rehab,Gateway mall,30.064836,31.477961,Withdrawal - Deposit - Currency Exchange
7a3c97dd-6ffd-464c-aeaa-c05e03d44535,Cairo,Elzaytoon,Carrefour-Alzaitoun,30.09946517,31.31456108,Withdrawal - Deposit - Currency Exchange
5f429361-551b-4e6c-8533-88493d3ad3d1,Cairo,Elzaytoon,Dilmar And Attallah Pharmacy Alzaitoun,30.10671168,31.32330361,Withdrawal - Deposit - Currency Exchange
074381d9-a744-430e-8878-a64a00e6c15a,Cairo,Garden City,Ranin  Nubar,30.03719446,31.23965018,Withdrawal - Deposit - Currency Exchange
6dba393a-5f3c-4f91-bd22-53bbca409a68,Cairo,Garden City,Kempinski Hotel Garden City,30.038724,31.230295,Withdrawal - Deposit - Currency Exchange
80191623-eaa0-4ec9-b647-44e2739debf7,Cairo,Hadayek El Kobba,Hadayek El Kobba,30.07945156,31.27908738,Withdrawal - Deposit - Currency Exchange
d1895760-bc88-4673-af80-633abf407852,Cairo,Hadayek El Kobba,Carrefour - Saraya Mall,30.08735,31.28372156,Withdrawal - Deposit - Currency Exchange
3914a196-9813-45b7-b8db-0062c653a266,Cairo,Hadayek El Kobba,Tanmiah Der Almalak,30.07788239,31.27447615,Withdrawal - Deposit - Currency Exchange
40c8ae34-7d27-4758-a5af-8b1d04cad24c,Cairo,Hadayek El Kobba, Ranin Port Said,30.08825273,31.27419132,Withdrawal - Deposit - Currency Exchange
7812db50-7e30-4222-a861-45cc891bc07c,Cairo,Hadayek El Kobba,IBAG-hadayek Alkoba,30.086414,31.283095,Withdrawal - Deposit - Currency Exchange
30c4ba3c-2531-41f5-9545-5862fc7233a0,Cairo,Hadayek El Kobba,Tamwily Hadaieq Alqouba,30.089218,31.285814,Withdrawal - Deposit - Currency Exchange
6ab35200-f167-4f8a-9de8-2b84c3ebd6fd,Cairo,Heliopolis,Heliopolis,30.09010356,31.34114395,Withdrawal - Deposit - Currency Exchange
d4f44576-df80-4e63-80fa-7554a0b96e74,Cairo,Heliopolis,Heliopolis,30.09129556,31.31897979,Withdrawal - Deposit - Currency Exchange
b273c345-4a62-4b16-b474-2b03a8e94061,Cairo,Heliopolis,Heliopolis,30.0992894,31.32447137,Withdrawal - Deposit - Currency Exchange
b06cd0f1-12d7-4231-9a92-5b274df40fd5,Cairo,Heliopolis,Heliopolis,30.09071331,31.32082406,Withdrawal - Deposit - Currency Exchange
67fd6824-0a88-4474-95e9-45b5de5f7a2a,Cairo,Heliopolis,Heliopolis,30.086022,31.303021,Withdrawal - Deposit - Currency Exchange
d56f0ac8-6214-40d2-801b-e683e419bd36,Cairo,Heliopolis,Heliopolis,30.092066,31.3089,Withdrawal - Deposit - Currency Exchange
81ddd9d6-c5d3-4cdd-b14d-c960ef6cfeb3,Cairo,Heliopolis,Heliopolis,30.118761,31.340027,Withdrawal - Deposit - Currency Exchange
6c19fd43-eef1-4c91-82db-a9b047226afb,Cairo,Heliopolis,Heliopolis,30.102269,31.33157,Withdrawal - Deposit - Currency Exchange
98e58cd9-6097-449e-a15d-1aee65fc4d06,Cairo,Heliopolis,Heliopolis,30.106737,31.336032,Withdrawal - Deposit - Currency Exchange
aaffebb9-aa43-498b-841e-f941cf85a4be,Cairo,Heliopolis,Heliopolis,30.09128324,31.3217572,Withdrawal - Deposit - Currency Exchange
1c70867c-bbdf-466d-9bbe-b279666ad34f,Cairo,Heliopolis,Miso Car,30.10673712,31.33603248,Withdrawal - Deposit - Currency Exchange
2a80780b-7dfa-4695-92ff-874de5dfb951,Cairo,Heliopolis,Alf maskan metro Station,30.118761,31.340027,Withdrawal - Deposit - Currency Exchange
700475d4-eb49-45e1-993e-3c9de0ffeadd,Cairo,Heliopolis,Haroun Metro Station,30.10226922,31.3315702,Withdrawal - Deposit - Currency Exchange
fb58cb4d-7b3a-40b4-8a1a-7c5c41f86f42,Cairo,Heliopolis,College Of Military Medicine,30.0844375,31.30401054,Withdrawal - Deposit - Currency Exchange
74beea71-f25c-487f-a640-e32394aedbcf,Cairo,Heliopolis,Carrefour-Demeshq,30.09351569,31.32039039,Withdrawal - Deposit - Currency Exchange
8bab390e-b9a7-4e91-abd1-1cf73b8a6a98,Cairo,Heliopolis,Nehro Machine Heliopolis,30.098402,31.317043,Withdrawal - Deposit - Currency Exchange
4b71b7ac-5ded-460d-9707-17bf9cc16627,Cairo,Heliopolis,Command and Staff College - Heliopolis,30.086022,31.303021,Withdrawal - Deposit - Currency Exchange
55805ad8-d55b-4d99-b23b-6d95c60beb3e,Cairo,Heliopolis,Alhoriea Mall,30.0936174,31.32385366,Withdrawal - Deposit - Currency Exchange
a2118512-189f-4505-84a4-dc59c97cb7e5,Cairo,Heliopolis,Ahram Metro Station,30.091713,31.326371,Withdrawal - Deposit - Currency Exchange
f88df9a2-852f-47fc-b051-844cb5d77a9d,Cairo,Heliopolis,Faculty  of Education 2 Ain Shams University,30.092066,31.3089,Withdrawal - Deposit - Currency Exchange
32668218-1e7f-4ed2-be93-157b7488e297,Cairo,Heliopolis,Tahya Misr Mall Branch,30.08655,31.308322,Withdrawal - Deposit - Currency Exchange
4d74e75e-3496-4dd1-b44a-b9ec5eb8fa25,Cairo,Helwan,Helwan,29.84862106,31.33290654,Withdrawal - Deposit - Currency Exchange
6d3b3ea6-680e-4599-b6eb-005c467d5593,Cairo,Helwan,Helwan,29.85214067,31.33785294,Withdrawal - Deposit - Currency Exchange
7b24613e-4ec8-4b96-a74b-7e11893bf0ca,Cairo,Helwan,Helwan,29.869515,31.319928,Withdrawal - Deposit - Currency Exchange
006922ec-f5ff-4af3-ac3e-36cd45449b30,Cairo,Helwan,Carrefour-Helwan Branch,29.85008854,31.32524469,Withdrawal - Deposit - Currency Exchange
f961e1e0-9f9e-48c0-9042-b40bdafa4315,Cairo,Helwan,Ranin Helwan,29.85113557,31.33252648,Withdrawal - Deposit - Currency Exchange
6e0007f8-289b-415f-b582-af77c125bba0,Cairo,Helwan,Tanmiah Helwan,29.84877916,31.33900263,Withdrawal - Deposit - Currency Exchange
0bebf637-2aac-4d61-999b-63bad8c3dc24,Cairo,Helwan,Helwan Company for Engineering Industries 2,29.86451,31.33254,Withdrawal - Deposit - Currency Exchange
59b9e668-04a2-4a84-b316-740b1361eb40,Cairo,Helwan,Helwan University Metro Station,29.869515,31.319928,Withdrawal - Deposit - Currency Exchange
884d81fd-f1c6-4c07-a28a-d5322ef25c3b,Cairo,Helwan,Ein Helwan Metro Station,29.862341,31.3253,Withdrawal - Deposit - Currency Exchange
621ab9c1-d783-4d84-8907-fd911bebca54,Cairo,Helwan,New Helwan Youth Center,29.84599371,31.32104131,Withdrawal - Deposit
8d086075-7c7a-4e80-9122-66e2a0ff7458,Cairo,Helwan,BranchHelwan,29.848625,31.332872,Withdrawal - Deposit - Currency Exchange
8ee02dd7-caaf-44b4-a8c5-e75a403ae703,Cairo,Helwan,We Atlas,29.834573,31.352476,Withdrawal - Deposit - Currency Exchange
bb4dc662-f374-42cc-921a-78e539786f1b,Cairo,Izbet Alhagana,Izbet Alhagana,30.081608,31.401072,Withdrawal - Deposit - Currency Exchange
4721fd26-9840-460a-b36a-60aa8985c93a,Cairo,Izbet Alhagana,Arab Organization for Industrialization,30.08160753,31.40107219,Withdrawal - Deposit - Currency Exchange
25a32f63-7c68-4359-b82b-a888a31257a2,Cairo,Izbet Alhagana,Carrefour - City Center Almaza,30.08136549,31.36461445,Withdrawal - Deposit - Currency Exchange
2d68fc23-40f5-4043-ab6f-e341afb99f89,Cairo,Izbet Alhagana,Ragab Sons Market 10th District - Nasr City,30.0551702,31.3800279,Withdrawal - Deposit - Currency Exchange
166199d7-6fef-4df7-b478-b90bb9f54627,Cairo,Izbet Alhagana,Watania Zahraa Nasr City,30.051471,31.397258,Withdrawal - Deposit - Currency Exchange
44565a54-9457-494f-97f1-b60f43138b3a,Cairo,Madinaty,South Park My Town Drive Thru,30.084686,31.639142,Withdrawal - Deposit - Currency Exchange
684abe97-79ee-4635-a3f5-3b5065a9a51a,Cairo,Manial El Rodah,Manial El Rodah,30.03150635,31.22600199,Withdrawal - Deposit - Currency Exchange
b024d06d-6610-4448-8c37-2be31f146b93,Cairo,Manial El Rodah,Magles Aldawla Club,30.031932,31.225295,Withdrawal - Deposit - Currency Exchange
5bc37fff-8b8d-4b8f-bba9-b76a17b13620,Cairo,Manial El Rodah,Mamluk Branch 2,30.01342367,31.22411475,Withdrawal - Deposit - Currency Exchange
e630e0b4-b63e-4b83-805a-9959223d6af5,Cairo,Misr Alqadima,Civilizations Museum,30.00652241,31.24911846,Withdrawal - Deposit - Currency Exchange
d75f9eaf-a612-4f9d-ab44-54d232a75d68,Cairo,Misr Alqadima,Sief Pharamcy Almanial,30.01571569,31.22335074,Withdrawal - Deposit - Currency Exchange
bd31491e-8267-4f6d-9749-dd356faac331,Cairo,Misr Alqadima,Almasria For Cars Almaadi Branch,29.98392836,31.23075394,Withdrawal - Deposit - Currency Exchange
f6e8e897-f83c-4ccb-9f18-588936358796,Cairo,Misr Alqadima,Ranin Al Fustat,30.00282256,31.24248562,Withdrawal - Deposit - Currency Exchange
5f2bf9cd-18d2-4e14-8aec-01b1952a6a29,Cairo,Misr Alqadima,Egypt Exchange Manial,30.012223,31.223511,Withdrawal - Deposit - Currency Exchange
e8c91298-4e65-4927-bd50-abe044e401e8,Cairo,Nasr City,Tucano ,30.06062849,31.32319794,Withdrawal - Deposit - Currency Exchange
6e795cdf-c4a0-4b5a-aa87-80725ac0d3af,Cairo,Nasr City,Nasr City,30.066072,31.323309,Withdrawal - Deposit - Currency Exchange
e74661cd-8671-4b97-9a2e-297ed358d388,Cairo,Nasr City,Nasr City,30.08232996,31.34290095,Withdrawal - Deposit - Currency Exchange
b7a56123-4e1a-434e-a4af-a368c9176831,Cairo,Nasr City,Nasr City,30.071375,31.296707,Withdrawal - Deposit - Currency Exchange
b8639e3d-e2ef-46e7-8ce3-65410eb430ed,Cairo,Nasr City,Nasr City,30.074334,31.324551,Withdrawal - Deposit - Currency Exchange
fa9b8d41-66cc-4ce2-ae6f-637e05531a24,Cairo,Nasr City,Nasr City,30.021116,31.373844,Withdrawal - Deposit - Currency Exchange
2c10a4ea-b7ff-4fd5-9b67-f30666d274af,Cairo,Nasr City,Nasr City,30.021804,31.374261,Withdrawal - Deposit - Currency Exchange
d16ca41b-ff26-4cbb-ae3a-020260199e7c,Cairo,Nasr City,Nasr City,30.068236,31.329351,Withdrawal - Deposit - Currency Exchange
5da975cb-71d6-4eca-8563-d1894f68aa03,Cairo,Nasr City,Nasr City,30.073347,31.345358,Withdrawal - Deposit - Currency Exchange
1894d03c-519c-4994-96cd-72b238c3b9df,Cairo,Nasr City,Nasr City,29.98573,31.357187,Withdrawal - Deposit - Currency Exchange
965ae3b3-66d9-456d-b694-33052c9e5d13,Cairo,Nasr City,Nasr City,30.06906531,31.34331487,Withdrawal - Deposit - Currency Exchange
9607cfcf-3e8e-4b47-94a3-6c451cacc245,Cairo,Nasr City,Nasr City,30.07279859,31.34540162,Withdrawal - Deposit - Currency Exchange
9cddf45d-703e-412d-9095-94b6ef06405f,Cairo,Nasr City,Nasr City,30.0748818,31.32252295,Withdrawal - Deposit - Currency Exchange
b52b9b73-7a61-4d64-bd3d-963ffa69708c,Cairo,Nasr City,Nasr City,30.0609354,31.34501749,Withdrawal - Deposit - Currency Exchange
03930f12-7af2-466a-821f-40da605f40bb,Cairo,Nasr City,Nasr City,30.078316,31.347774,Withdrawal - Deposit - Currency Exchange
763d85ff-747d-46f4-8b0b-89254969e59d,Cairo,Nasr City,Nasr City,30.074058,31.343571,Withdrawal - Deposit - Currency Exchange
e01a9fac-c6a2-4dcf-ae81-e6b4d2cc0a01,Cairo,Nasr City,Nasr City,30.08061,31.408165,Withdrawal - Deposit - Currency Exchange
b18be1df-c943-4243-bc6e-b8c0ec126000,Cairo,Nasr City,Nasr City,30.073239,31.300957,Withdrawal - Deposit - Currency Exchange
ffadc972-8261-4893-a49d-63fc5d864445,Cairo,Nasr City,Nasr City,30.070444,31.42687,Withdrawal - Deposit - Currency Exchange
1db5cbdd-855d-4384-aa4d-491822a74aab,Cairo,Nasr City,"City Stars 3 , Golden Pyramids Plaza, Nasr City",30.07346706,31.34533415,Withdrawal - Deposit - Currency Exchange
37da84fc-5739-419a-860b-23027b63124d,Cairo,Nasr City,"City Stars 1 , Golden Pyramids Plaza, Nasr City",30.07311234,31.3446828,Withdrawal - Deposit - Currency Exchange
48dc1e99-8ee7-41df-b37e-b61d12012887,Cairo,Nasr City,Mirage on the run,30.07044448,31.42686961,Withdrawal - Deposit - Currency Exchange
d69754ff-5637-4b30-b193-84c8377c5670,Cairo,Nasr City,Chillout Gardenia,30.08054248,31.40113886,Withdrawal - Deposit - Currency Exchange
f6d35ca4-bc72-4111-b5d8-a60e9a8cabcf,Cairo,Nasr City,Customs Department,30.07780453,31.31911304,Withdrawal - Deposit - Currency Exchange
b968e296-2ee5-4435-bf07-d918a46f6d6e,Cairo,Nasr City,Watania Almethaq,30.05147142,31.39725793,Withdrawal - Deposit - Currency Exchange
6ae35d2b-9f9f-42cb-af88-5d1b11571054,Cairo,Nasr City,Dar Alfouad Hospital,30.06582717,31.31976267,Withdrawal - Deposit - Currency Exchange
887bb9c4-2b46-4dc9-af0d-04d35b349ebc,Cairo,Nasr City,The new police complex,30.04929874,31.40604925,Withdrawal - Deposit - Currency Exchange
d6512f6b-93b1-47cf-a4f5-f25b4221158b,Cairo,Nasr City,Watania Station Ramsis Extension,30.06211033,31.29932324,Withdrawal - Deposit - Currency Exchange
5a1ec221-c437-4784-b48f-098bc6c8392e,Cairo,Nasr City,Watania Station Almoshir Tantawy Axis,30.0158817,31.39308645,Withdrawal - Deposit - Currency Exchange
96cd83c5-d6f8-49cf-85d1-150b886b2359,Cairo,Nasr City,Watania Alshahid Axis,30.02245391,31.34335268,Withdrawal - Deposit - Currency Exchange
fda1d909-445d-4cf6-b3f3-840706dd1c28,Cairo,Nasr City,Watania gas Station Alwaha,30.04385111,31.38128734,Withdrawal - Deposit - Currency Exchange
45c113fe-a8d0-4c58-8563-e0c7f8528566,Cairo,Nasr City,Alamn Alharby Mall,30.06829986,31.32991213,Withdrawal - Deposit - Currency Exchange
cc9d050c-35fd-476e-ad03-46a570856bcb,Cairo,Nasr City,Carrefour - Tiba Mall,30.0676093,31.32991116,Withdrawal - Deposit - Currency Exchange
d351e8b8-6c0d-45dd-9d79-291644893c77,Cairo,Nasr City,Tulip Golden Plaza Hotel,30.078316,31.347774,Withdrawal - Deposit - Currency Exchange
66ea9ee0-dabe-49c8-9841-af1c495ca98d,Cairo,Nasr City,The Military Intelligence Administration - Border Guard,30.074334,31.324551,Withdrawal - Deposit - Currency Exchange
ae15edef-90f5-4e5a-99bf-57ecb611817d,Cairo,Nasr City,City Stars - Golden Pyramids Plaza - Nasr City,30.073347,31.345358,Withdrawal - Deposit - Currency Exchange
f8f306b8-86b2-4186-a31b-cbc3eb847e23,Cairo,Nasr City,War Security Service,30.068236,31.329351,Withdrawal - Deposit - Currency Exchange
868a4464-63b6-4e48-b80f-89649f3b8543,Cairo,Nasr City,Seif El Merghany Pharmacy,30.08405197,31.32785804,Withdrawal - Deposit - Currency Exchange
48d8c846-152f-45b9-b3da-2175a5679fa1,Cairo,Nasr City,Cairo Stadium Metro Station,30.073438,31.317856,Withdrawal - Deposit - Currency Exchange
d969a513-c1ee-4460-9224-5743a012eaac,Cairo,Nasr City,Koliet Albanat Metro Station,30.083331,31.328934,Withdrawal - Deposit - Currency Exchange
08ac8e97-c4ad-4628-893e-c1ef178d2472,Cairo,Nasr City,Ard Almaared Metro Station,30.073239,31.300957,Withdrawal - Deposit - Currency Exchange
4d2fce58-2fb3-4df9-9009-52fb6a464aef,Cairo,Nasr City,Military Security Service (Military Security Services Complex),30.07833124,31.32670017,Withdrawal - Deposit - Currency Exchange
51699905-84e9-4a54-b963-ea0ca473e23a,Cairo,Nasr City,Ranin Abbas Al-Akkad,30.06063514,31.33719443,Withdrawal - Deposit - Currency Exchange
8dda44b9-ffa5-413a-a158-538c3a460997,Cairo,Nasr City,"The administration building of the Women's College, Ain Shams University",30.08118229,31.32810179,Withdrawal - Deposit - Currency Exchange
ff89f3cd-226a-4588-8dfc-a0511f85af84,Cairo,Nasr City,Panda Nasr City,30.068404,31.34269332,Withdrawal - Deposit - Currency Exchange
7dc082bc-65f0-4431-853c-49a12bece1cc,Cairo,Nasr City,Chillout airport terminal,30.08061,31.408165,Withdrawal - Deposit - Currency Exchange
2f39730d-b838-4c0c-a7c8-75dcc7d18b53,Cairo,Nasr City,Orange Alsekka Club,30.058529,31.302285,Withdrawal - Deposit - Currency Exchange
18042f7d-d38d-4a06-a413-cfea44f5989b,Cairo,Nasr City,Chillout Alnakhil,29.98573,31.357187,Withdrawal - Deposit - Currency Exchange
e2605a42-c428-4ae4-87d0-43e62592b959,Cairo,Nasr City,Police Service Improvement Fund,30.080305,31.464497,Withdrawal - Deposit - Currency Exchange
54164510-5202-4e52-a26a-42eb9094ccd4,Cairo,Nasr City,Chillout Gas Station Mehwar Almoshir 2,30.021804,31.374261,Withdrawal - Deposit - Currency Exchange
eb854f61-a3e0-40f1-ad92-eb0ead39e6c3,Cairo,Nasr City,Chillout Gas Station Mehwar Almoshir 1,30.021116,31.373844,Withdrawal - Deposit - Currency Exchange
56dc1261-9a2d-4ae3-829b-a439437c04ce,Cairo,Nasr City,Central Administration for International Students Affairs,30.038474,31.341186,Withdrawal - Deposit - Currency Exchange
c916479c-fdfa-4660-8707-a06fda3791a1,Cairo,Nasr City,SkyJet Branch 2,30.10082726,31.37601417,Withdrawal - Deposit - Currency Exchange
